UF,MUNICIPIO,POPULACAO,CD_IBGE,ESTADO,CAPITAL,REGIAO,LATITUDE,LONGITUDE,UF_LATITUDE,UF_LONGITUDE,REGIAO_LATITUDE,REGIAO_LONGITUDE
RO,Alta Floresta D'Oeste,21494,110001,Rondônia,Porto Velho,Norte,-11.9355403047646,-61.9998238962936,-8.76889179,-63.8314456543611,-4.378478204516477,-57.176016723082924
RO,Ariquemes,96833,110002,Rondônia,Porto Velho,Norte,-9.9084628665672,-63.0332692780484,-8.76889179,-63.8314456543611,-4.378478204516477,-57.176016723082924
RO,Cabixi,5351,110003,Rondônia,Porto Velho,Norte,-13.4997634596963,-60.5443135812009,-8.76889179,-63.8314456543611,-4.378478204516477,-57.176016723082924
RO,Cacoal,86887,110004,Rondônia,Porto Velho,Norte,-11.4338650286852,-61.4429442118224,-8.76889179,-63.8314456543611,-4.378478204516477,-57.176016723082924
RO,Cerejeiras,15890,110005,Rondônia,Porto Velho,Norte,-13.1950330320399,-60.8184261646815,-8.76889179,-63.8314456543611,-4.378478204516477,-57.176016723082924
RO,Colorado do Oeste,15663,110006,Rondônia,Porto Velho,Norte,-13.1305638414553,-60.5550674630789,-8.76889179,-63.8314456543611,-4.378478204516477,-57.176016723082924
RO,Corumbiara,7519,110007,Rondônia,Porto Velho,Norte,-12.9975202364834,-60.9487011706614,-8.76889179,-63.8314456543611,-4.378478204516477,-57.176016723082924
RO,Costa Marques,12627,110008,Rondônia,Porto Velho,Norte,-12.4360138777142,-64.2316539391172,-8.76889179,-63.8314456543611,-4.378478204516477,-57.176016723082924
RO,Espigão D'Oeste,29414,110009,Rondônia,Porto Velho,Norte,-11.5285546333473,-61.0201731132847,-8.76889179,-63.8314456543611,-4.378478204516477,-57.176016723082924
RO,Guajará-Mirim,39387,110010,Rondônia,Porto Velho,Norte,-10.7738837406705,-65.3239518196923,-8.76889179,-63.8314456543611,-4.378478204516477,-57.176016723082924
RO,Jaru,50591,110011,Rondônia,Porto Velho,Norte,-10.4359487678844,-62.4762307081317,-8.76889179,-63.8314456543611,-4.378478204516477,-57.176016723082924
RO,Ji-Paraná,124333,110012,Rondônia,Porto Velho,Norte,-10.882051318349,-61.9450945826841,-8.76889179,-63.8314456543611,-4.378478204516477,-57.176016723082924
RO,Machadinho D'Oeste,30707,110013,Rondônia,Porto Velho,Norte,-9.42556248,-61.9995925724466,-8.76889179,-63.8314456543611,-4.378478204516477,-57.176016723082924
RO,Nova Brasilândia D'Oeste,15679,110014,Rondônia,Porto Velho,Norte,-11.7213254138559,-62.308230163019,-8.76889179,-63.8314456543611,-4.378478204516477,-57.176016723082924
RO,Ouro Preto do Oeste,35044,110015,Rondônia,Porto Velho,Norte,-10.7235739008135,-62.2610551904363,-8.76889179,-63.8314456543611,-4.378478204516477,-57.176016723082924
RO,Pimenta Bueno,35079,110018,Rondônia,Porto Velho,Norte,-11.67753699,-61.183665673642,-8.76889179,-63.8314456543611,-4.378478204516477,-57.176016723082924
RO,Porto Velho,460434,110020,Rondônia,Porto Velho,Norte,-8.76889179,-63.8314456543611,-8.76889179,-63.8314456543611,-4.378478204516477,-57.176016723082924
RO,Presidente Médici,19327,110025,Rondônia,Porto Velho,Norte,-11.1732050162268,-61.9094386835298,-8.76889179,-63.8314456543611,-4.378478204516477,-57.176016723082924
RO,Rio Crespo,3471,110026,Rondônia,Porto Velho,Norte,-9.70553670973949,-62.9000103659589,-8.76889179,-63.8314456543611,-4.378478204516477,-57.176016723082924
RO,Rolim de Moura,56406,110028,Rondônia,Porto Velho,Norte,-11.7222589133808,-61.7857809351854,-8.76889179,-63.8314456543611,-4.378478204516477,-57.176016723082924
RO,Santa Luzia D'Oeste,7419,110029,Rondônia,Porto Velho,Norte,-11.908423332469,-61.7733054630545,-8.76889179,-63.8314456543611,-4.378478204516477,-57.176016723082924
RO,Vilhena,95832,110030,Rondônia,Porto Velho,Norte,-12.7413734718029,-60.1385838660987,-8.76889179,-63.8314456543611,-4.378478204516477,-57.176016723082924
RO,São Miguel do Guaporé,21635,110032,Rondônia,Porto Velho,Norte,-11.699489743806,-62.7200634814364,-8.76889179,-63.8314456543611,-4.378478204516477,-57.176016723082924
RO,Nova Mamoré,25444,110033,Rondônia,Porto Velho,Norte,-10.4117712947002,-65.3291490231467,-8.76889179,-63.8314456543611,-4.378478204516477,-57.176016723082924
RO,Alvorada D'Oeste,13117,110034,Rondônia,Porto Velho,Norte,-11.3441300234334,-62.2772748656972,-8.76889179,-63.8314456543611,-4.378478204516477,-57.176016723082924
RO,Alto Alegre dos Parecis,11479,110037,Rondônia,Porto Velho,Norte,-12.1317772245709,-61.853077168603,-8.76889179,-63.8314456543611,-4.378478204516477,-57.176016723082924
RO,Alto Paraíso,16320,110040,Rondônia,Porto Velho,Norte,-9.71666673807728,-63.3176294334976,-8.76889179,-63.8314456543611,-4.378478204516477,-57.176016723082924
RO,Buritis,27992,110045,Rondônia,Porto Velho,Norte,-10.2098054072356,-63.8296787917565,-8.76889179,-63.8314456543611,-4.378478204516477,-57.176016723082924
RO,Novo Horizonte do Oeste,7667,110050,Rondônia,Porto Velho,Norte,-11.7097429200152,-61.9943876627606,-8.76889179,-63.8314456543611,-4.378478204516477,-57.176016723082924
RO,Cacaulândia,4150,110060,Rondônia,Porto Velho,Norte,-10.3388728393928,-62.9031899345687,-8.76889179,-63.8314456543611,-4.378478204516477,-57.176016723082924
RO,Campo Novo de Rondônia,8844,110070,Rondônia,Porto Velho,Norte,-10.5684164693485,-63.6249914265426,-8.76889179,-63.8314456543611,-4.378478204516477,-57.176016723082924
RO,Candeias do Jamari,22310,110080,Rondônia,Porto Velho,Norte,-8.78502070347748,-63.7000200718298,-8.76889179,-63.8314456543611,-4.378478204516477,-57.176016723082924
RO,Castanheiras,3233,110090,Rondônia,Porto Velho,Norte,-11.4268422254625,-61.9491611964662,-8.76889179,-63.8314456543611,-4.378478204516477,-57.176016723082924
RO,Chupinguaia,9324,110092,Rondônia,Porto Velho,Norte,-12.5568407610938,-60.9018477499554,-8.76889179,-63.8314456543611,-4.378478204516477,-57.176016723082924
RO,Cujubim,14863,110094,Rondônia,Porto Velho,Norte,-9.37819339905712,-62.5871745319209,-8.76889179,-63.8314456543611,-4.378478204516477,-57.176016723082924
RO,Governador Jorge Teixeira,8001,110100,Rondônia,Porto Velho,Norte,-10.6120717726075,-62.7404576394632,-8.76889179,-63.8314456543611,-4.378478204516477,-57.176016723082924
RO,Itapuã do Oeste,8548,110110,Rondônia,Porto Velho,Norte,-9.19187167532785,-63.1823370165183,-8.76889179,-63.8314456543611,-4.378478204516477,-57.176016723082924
RO,Ministro Andreazza,6466,110120,Rondônia,Porto Velho,Norte,-11.1962379841591,-61.5189219301054,-8.76889179,-63.8314456543611,-4.378478204516477,-57.176016723082924
RO,Mirante da Serra,9235,110130,Rondônia,Porto Velho,Norte,-11.045609289937,-62.6694270952566,-8.76889179,-63.8314456543611,-4.378478204516477,-57.176016723082924
RO,Monte Negro,11548,110140,Rondônia,Porto Velho,Norte,-10.263097755883,-63.2955591672175,-8.76889179,-63.8314456543611,-4.378478204516477,-57.176016723082924
RO,Nova União,6200,110143,Rondônia,Porto Velho,Norte,-10.9155320416628,-62.55508939888,-8.76889179,-63.8314456543611,-4.378478204516477,-57.176016723082924
RO,Parecis,4125,110145,Rondônia,Porto Velho,Norte,-12.1798270507077,-61.5979979726776,-8.76889179,-63.8314456543611,-4.378478204516477,-57.176016723082924
RO,Pimenteiras do Oeste,2156,110146,Rondônia,Porto Velho,Norte,-13.4765620024615,-61.0443790025384,-8.76889179,-63.8314456543611,-4.378478204516477,-57.176016723082924
RO,Primavera de Rondônia,3076,110147,Rondônia,Porto Velho,Norte,-11.8257069542468,-61.3165462429165,-8.76889179,-63.8314456543611,-4.378478204516477,-57.176016723082924
RO,São Felipe D'Oeste,5258,110148,Rondônia,Porto Velho,Norte,-11.9143893546886,-61.5125081133327,-8.76889179,-63.8314456543611,-4.378478204516477,-57.176016723082924
RO,São Francisco do Guaporé,16286,110149,Rondônia,Porto Velho,Norte,-12.0637984122334,-63.5708647107649,-8.76889179,-63.8314456543611,-4.378478204516477,-57.176016723082924
RO,Seringueiras,11171,110150,Rondônia,Porto Velho,Norte,-11.767116635607,-63.0387609977072,-8.76889179,-63.8314456543611,-4.378478204516477,-57.176016723082924
RO,Teixeirópolis,4256,110155,Rondônia,Porto Velho,Norte,-10.9321692860399,-62.2559222539546,-8.76889179,-63.8314456543611,-4.378478204516477,-57.176016723082924
RO,Theobroma,8113,110160,Rondônia,Porto Velho,Norte,-10.2487305520261,-62.3451455299349,-8.76889179,-63.8314456543611,-4.378478204516477,-57.176016723082924
RO,Urupá,10725,110170,Rondônia,Porto Velho,Norte,-11.1285452756794,-62.3706324537667,-8.76889179,-63.8314456543611,-4.378478204516477,-57.176016723082924
RO,Vale do Anari,7788,110175,Rondônia,Porto Velho,Norte,-9.85139270806179,-62.1768234421278,-8.76889179,-63.8314456543611,-4.378478204516477,-57.176016723082924
RO,Vale do Paraíso,6479,110180,Rondônia,Porto Velho,Norte,-10.4310526845565,-62.1343903568099,-8.76889179,-63.8314456543611,-4.378478204516477,-57.176016723082924
AC,Acrelândia,14021,120001,Acre,Rio Branco,Norte,-10.0737938924635,-67.0523165800206,-9.97829875272498,-67.8105287004235,-4.378478204516477,-57.176016723082924
AC,Assis Brasil,8100,120005,Acre,Rio Branco,Norte,-10.9428656809172,-69.5634591746677,-9.97829875272498,-67.8105287004235,-4.378478204516477,-57.176016723082924
AC,Brasiléia,26000,120010,Acre,Rio Branco,Norte,-11.0164110190858,-68.7479434259584,-9.97829875272498,-67.8105287004235,-4.378478204516477,-57.176016723082924
AC,Bujari,12917,120013,Acre,Rio Branco,Norte,-9.82001962670938,-67.9518592792015,-9.97829875272498,-67.8105287004235,-4.378478204516477,-57.176016723082924
AC,Capixaba,10392,120017,Acre,Rio Branco,Norte,-10.5697677087928,-67.6735079719432,-9.97829875272498,-67.8105287004235,-4.378478204516477,-57.176016723082924
AC,Cruzeiro do Sul,91888,120020,Acre,Rio Branco,Norte,-7.63069000500981,-72.6725313174358,-9.97829875272498,-67.8105287004235,-4.378478204516477,-57.176016723082924
AC,Epitaciolândia,18757,120025,Acre,Rio Branco,Norte,-11.0282398279564,-68.7448680666749,-9.97829875272498,-67.8105287004235,-4.378478204516477,-57.176016723082924
AC,Feijó,35426,120030,Acre,Rio Branco,Norte,-8.16024753,-70.3539836082165,-9.97829875272498,-67.8105287004235,-4.378478204516477,-57.176016723082924
AC,Jordão,9222,120032,Acre,Rio Branco,Norte,-9.19335785982848,-71.9508751248365,-9.97829875272498,-67.8105287004235,-4.378478204516477,-57.176016723082924
AC,Mâncio Lima,19294,120033,Acre,Rio Branco,Norte,-7.59322259385836,-72.9165010261308,-9.97829875272498,-67.8105287004235,-4.378478204516477,-57.176016723082924
AC,Manoel Urbano,11996,120034,Acre,Rio Branco,Norte,-8.83631773689166,-69.2599445775075,-9.97829875272498,-67.8105287004235,-4.378478204516477,-57.176016723082924
AC,Marechal Thaumaturgo,17093,120035,Acre,Rio Branco,Norte,-8.95359112315366,-72.7902659086983,-9.97829875272498,-67.8105287004235,-4.378478204516477,-57.176016723082924
AC,Plácido de Castro,16560,120038,Acre,Rio Branco,Norte,-10.3351332827427,-67.1882600861516,-9.97829875272498,-67.8105287004235,-4.378478204516477,-57.176016723082924
AC,Porto Walter,10735,120039,Acre,Rio Branco,Norte,-8.26666636282753,-72.7423339648033,-9.97829875272498,-67.8105287004235,-4.378478204516477,-57.176016723082924
AC,Rio Branco,364756,120040,Acre,Rio Branco,Norte,-9.97829875272498,-67.8105287004235,-9.97829875272498,-67.8105287004235,-4.378478204516477,-57.176016723082924
AC,Rodrigues Alves,14938,120042,Acre,Rio Branco,Norte,-7.73360203372322,-72.6478549141997,-9.97829875272498,-67.8105287004235,-4.378478204516477,-57.176016723082924
AC,Santa Rosa do Purus,6723,120043,Acre,Rio Branco,Norte,-9.44340653741185,-70.4864968937616,-9.97829875272498,-67.8105287004235,-4.378478204516477,-57.176016723082924
AC,Senador Guiomard,21454,120045,Acre,Rio Branco,Norte,-10.1481735861989,-67.7431723600051,-9.97829875272498,-67.8105287004235,-4.378478204516477,-57.176016723082924
AC,Sena Madureira,41343,120050,Acre,Rio Branco,Norte,-9.065339505,-68.655684061692,-9.97829875272498,-67.8105287004235,-4.378478204516477,-57.176016723082924
AC,Tarauacá,43467,120060,Acre,Rio Branco,Norte,-8.15566859176562,-70.7555010628937,-9.97829875272498,-67.8105287004235,-4.378478204516477,-57.176016723082924
AC,Xapuri,18243,120070,Acre,Rio Branco,Norte,-10.6520719403355,-68.5062948050463,-9.97829875272498,-67.8105287004235,-4.378478204516477,-57.176016723082924
AC,Porto Acre,16693,120080,Acre,Rio Branco,Norte,-9.60085823118788,-67.5405900835194,-9.97829875272498,-67.8105287004235,-4.378478204516477,-57.176016723082924
AM,Alvarães,15866,130002,Amazonas,Manaus,Norte,-3.21658376906639,-64.8135346775686,-3.13469149120195,-60.023335181061,-4.378478204516477,-57.176016723082924
AM,Amaturá,10819,130006,Amazonas,Manaus,Norte,-3.36680518750561,-68.2096146409404,-3.13469149120195,-60.023335181061,-4.378478204516477,-57.176016723082924
AM,Anamã,9962,130008,Amazonas,Manaus,Norte,-3.57637042689027,-61.4059034797501,-3.13469149120195,-60.023335181061,-4.378478204516477,-57.176016723082924
AM,Anori,17194,130010,Amazonas,Manaus,Norte,-3.74538558611889,-61.6589553828779,-3.13469149120195,-60.023335181061,-4.378478204516477,-57.176016723082924
AM,Apuí,20647,130014,Amazonas,Manaus,Norte,-7.1978701516076,-59.8856661047188,-3.13469149120195,-60.023335181061,-4.378478204516477,-57.176016723082924
AM,Atalaia do Norte,15314,130020,Amazonas,Manaus,Norte,-4.36615748971603,-70.1879892845226,-3.13469149120195,-60.023335181061,-4.378478204516477,-57.176016723082924
AM,Autazes,41564,130030,Amazonas,Manaus,Norte,-3.57866364177127,-59.1335670918168,-3.13469149120195,-60.023335181061,-4.378478204516477,-57.176016723082924
AM,Barcelos,18834,130040,Amazonas,Manaus,Norte,-0.972801052532191,-62.9256696581026,-3.13469149120195,-60.023335181061,-4.378478204516477,-57.176016723082924
AM,Barreirinha,31051,130050,Amazonas,Manaus,Norte,-2.7981498369298,-57.0677504898938,-3.13469149120195,-60.023335181061,-4.378478204516477,-57.176016723082924
AM,Benjamin Constant,37648,130060,Amazonas,Manaus,Norte,-4.37498901860391,-70.0273484332765,-3.13469149120195,-60.023335181061,-4.378478204516477,-57.176016723082924
AM,Beruri,20718,130063,Amazonas,Manaus,Norte,-3.89451340981806,-61.3715708916659,-3.13469149120195,-60.023335181061,-4.378478204516477,-57.176016723082924
AM,Boa Vista do Ramos,23785,130068,Amazonas,Manaus,Norte,-2.97172653158936,-57.5877073464737,-3.13469149120195,-60.023335181061,-4.378478204516477,-57.176016723082924
AM,Boca do Acre,35447,130070,Amazonas,Manaus,Norte,-8.75124319609379,-67.3995777566805,-3.13469149120195,-60.023335181061,-4.378478204516477,-57.176016723082924
AM,Borba,33080,130080,Amazonas,Manaus,Norte,-4.39061989147273,-59.5945590194969,-3.13469149120195,-60.023335181061,-4.378478204516477,-57.176016723082924
AM,Caapiranga,13469,130083,Amazonas,Manaus,Norte,-3.3300933919416,-61.2113341331817,-3.13469149120195,-60.023335181061,-4.378478204516477,-57.176016723082924
AM,Canutama,16869,130090,Amazonas,Manaus,Norte,-6.52910607582614,-64.3942308189288,-3.13469149120195,-60.023335181061,-4.378478204516477,-57.176016723082924
AM,Carauari,28742,130100,Amazonas,Manaus,Norte,-4.88166590420413,-66.8966352816837,-3.13469149120195,-60.023335181061,-4.378478204516477,-57.176016723082924
AM,Careiro,30792,130110,Amazonas,Manaus,Norte,-3.82244727004599,-60.3638098437089,-3.13469149120195,-60.023335181061,-4.378478204516477,-57.176016723082924
AM,Careiro da Várzea,19637,130115,Amazonas,Manaus,Norte,-3.1973965948696,-59.8263140608339,-3.13469149120195,-60.023335181061,-4.378478204516477,-57.176016723082924
AM,Coari,70616,130120,Amazonas,Manaus,Norte,-4.08421915877588,-63.1421839840562,-3.13469149120195,-60.023335181061,-4.378478204516477,-57.176016723082924
AM,Codajás,23549,130130,Amazonas,Manaus,Norte,-3.84304593273892,-62.0634296604883,-3.13469149120195,-60.023335181061,-4.378478204516477,-57.176016723082924
AM,Eirunepé,33170,130140,Amazonas,Manaus,Norte,-6.66735256685182,-69.8662902624416,-3.13469149120195,-60.023335181061,-4.378478204516477,-57.176016723082924
AM,Envira,17186,130150,Amazonas,Manaus,Norte,-7.43981754396838,-70.0304125429825,-3.13469149120195,-60.023335181061,-4.378478204516477,-57.176016723082924
AM,Fonte Boa,25871,130160,Amazonas,Manaus,Norte,-2.51227068454779,-66.0965029898347,-3.13469149120195,-60.023335181061,-4.378478204516477,-57.176016723082924
AM,Guajará,13815,130165,Amazonas,Manaus,Norte,-7.5477744148336,-72.5824305383396,-3.13469149120195,-60.023335181061,-4.378478204516477,-57.176016723082924
AM,Humaitá,57473,130170,Amazonas,Manaus,Norte,-7.51222495061139,-63.0266980219283,-3.13469149120195,-60.023335181061,-4.378478204516477,-57.176016723082924
AM,Ipixuna,24311,130180,Amazonas,Manaus,Norte,-7.05098011443721,-71.6944180603084,-3.13469149120195,-60.023335181061,-4.378478204516477,-57.176016723082924
AM,Iranduba,61163,130185,Amazonas,Manaus,Norte,-3.2810538776069,-60.1933881661307,-3.13469149120195,-60.023335181061,-4.378478204516477,-57.176016723082924
AM,Itacoatiara,103598,130190,Amazonas,Manaus,Norte,-3.14037880391635,-58.4401754367571,-3.13469149120195,-60.023335181061,-4.378478204516477,-57.176016723082924
AM,Itamarati,10937,130195,Amazonas,Manaus,Norte,-6.43779934861918,-68.2479174359782,-3.13469149120195,-60.023335181061,-4.378478204516477,-57.176016723082924
AM,Itapiranga,10162,130200,Amazonas,Manaus,Norte,-2.74184275232884,-58.0345458839662,-3.13469149120195,-60.023335181061,-4.378478204516477,-57.176016723082924
AM,Japurá,8858,130210,Amazonas,Manaus,Norte,-1.880844858703,-66.9969034946413,-3.13469149120195,-60.023335181061,-4.378478204516477,-57.176016723082924
AM,Juruá,10742,130220,Amazonas,Manaus,Norte,-3.47488959889068,-66.0630419255434,-3.13469149120195,-60.023335181061,-4.378478204516477,-57.176016723082924
AM,Jutaí,25172,130230,Amazonas,Manaus,Norte,-2.74464644685786,-66.7713275466878,-3.13469149120195,-60.023335181061,-4.378478204516477,-57.176016723082924
AM,Lábrea,45448,130240,Amazonas,Manaus,Norte,-7.26194655332705,-64.79477302752,-3.13469149120195,-60.023335181061,-4.378478204516477,-57.176016723082924
AM,Manacapuru,101883,130250,Amazonas,Manaus,Norte,-3.29827803546755,-60.6205894458706,-3.13469149120195,-60.023335181061,-4.378478204516477,-57.176016723082924
AM,Manaquiri,17107,130255,Amazonas,Manaus,Norte,-3.42907966935262,-60.4588813063745,-3.13469149120195,-60.023335181061,-4.378478204516477,-57.176016723082924
AM,Manaus,2063689,130260,Amazonas,Manaus,Norte,-3.13469149120195,-60.023335181061,-3.13469149120195,-60.023335181061,-4.378478204516477,-57.176016723082924
AM,Manicoré,53914,130270,Amazonas,Manaus,Norte,-5.81320526118813,-61.2992484088508,-3.13469149120195,-60.023335181061,-4.378478204516477,-57.176016723082924
AM,Maraã,15529,130280,Amazonas,Manaus,Norte,-1.86643687730125,-65.5742837031641,-3.13469149120195,-60.023335181061,-4.378478204516477,-57.176016723082924
AM,Maués,61204,130290,Amazonas,Manaus,Norte,-3.38642792621106,-57.7150343867525,-3.13469149120195,-60.023335181061,-4.378478204516477,-57.176016723082924
AM,Nhamundá,20136,130300,Amazonas,Manaus,Norte,-2.1889837668969,-56.7167699133376,-3.13469149120195,-60.023335181061,-4.378478204516477,-57.176016723082924
AM,Nova Olinda do Norte,27062,130310,Amazonas,Manaus,Norte,-3.88759283191138,-59.0930740260433,-3.13469149120195,-60.023335181061,-4.378478204516477,-57.176016723082924
AM,Novo Airão,15761,130320,Amazonas,Manaus,Norte,-2.62343245902763,-60.948810707829,-3.13469149120195,-60.023335181061,-4.378478204516477,-57.176016723082924
AM,Novo Aripuanã,23818,130330,Amazonas,Manaus,Norte,-5.12266931419617,-60.3770456690009,-3.13469149120195,-60.023335181061,-4.378478204516477,-57.176016723082924
AM,Parintins,96372,130340,Amazonas,Manaus,Norte,-2.62705258583723,-56.7362921451951,-3.13469149120195,-60.023335181061,-4.378478204516477,-57.176016723082924
AM,Pauini,19373,130350,Amazonas,Manaus,Norte,-7.71404364432219,-67.0020974885282,-3.13469149120195,-60.023335181061,-4.378478204516477,-57.176016723082924
AM,Presidente Figueiredo,30668,130353,Amazonas,Manaus,Norte,-2.058429085233,-60.0256468344675,-3.13469149120195,-60.023335181061,-4.378478204516477,-57.176016723082924
AM,Rio Preto da Eva,24936,130356,Amazonas,Manaus,Norte,-2.6933015416451,-59.704738094199,-3.13469149120195,-60.023335181061,-4.378478204516477,-57.176016723082924
AM,Santa Isabel do Rio Negro,14164,130360,Amazonas,Manaus,Norte,-0.416694831881864,-65.020022639512,-3.13469149120195,-60.023335181061,-4.378478204516477,-57.176016723082924
AM,Santo Antônio do Içá,28211,130370,Amazonas,Manaus,Norte,-3.10748630918151,-67.9464851438841,-3.13469149120195,-60.023335181061,-4.378478204516477,-57.176016723082924
AM,São Gabriel da Cachoeira,51795,130380,Amazonas,Manaus,Norte,-0.136462788116522,-67.0836428963463,-3.13469149120195,-60.023335181061,-4.378478204516477,-57.176016723082924
AM,São Paulo de Olivença,32967,130390,Amazonas,Manaus,Norte,-3.46650962349132,-68.9448534881358,-3.13469149120195,-60.023335181061,-4.378478204516477,-57.176016723082924
AM,São Sebastião do Uatumã,11670,130395,Amazonas,Manaus,Norte,-2.57015257967785,-57.8703463558346,-3.13469149120195,-60.023335181061,-4.378478204516477,-57.176016723082924
AM,Silves,11559,130400,Amazonas,Manaus,Norte,-2.83642742966584,-58.2148008608269,-3.13469149120195,-60.023335181061,-4.378478204516477,-57.176016723082924
AM,Tabatinga,66764,130406,Amazonas,Manaus,Norte,-4.23188367564665,-69.9462443752272,-3.13469149120195,-60.023335181061,-4.378478204516477,-57.176016723082924
AM,Tapauá,19599,130410,Amazonas,Manaus,Norte,-5.62422351778794,-63.1870948671802,-3.13469149120195,-60.023335181061,-4.378478204516477,-57.176016723082924
AM,Tefé,73669,130420,Amazonas,Manaus,Norte,-3.34837249394151,-64.7084196633027,-3.13469149120195,-60.023335181061,-4.378478204516477,-57.176016723082924
AM,Tonantins,19247,130423,Amazonas,Manaus,Norte,-2.86109124983543,-67.7764822806952,-3.13469149120195,-60.023335181061,-4.378478204516477,-57.176016723082924
AM,Uarini,14431,130426,Amazonas,Manaus,Norte,-2.9836092426921,-65.1553456401554,-3.13469149120195,-60.023335181061,-4.378478204516477,-57.176016723082924
AM,Urucará,18631,130430,Amazonas,Manaus,Norte,-2.53661167184038,-57.7598281745956,-3.13469149120195,-60.023335181061,-4.378478204516477,-57.176016723082924
AM,Urucurituba,23945,130440,Amazonas,Manaus,Norte,-3.1346331156473,-58.1596410413098,-3.13469149120195,-60.023335181061,-4.378478204516477,-57.176016723082924
RR,Amajari,13927,140002,Roraima,Boa Vista,Norte,3.6521184454459,-61.4205901726631,2.81668191910439,-60.6705326729651,-4.378478204516477,-57.176016723082924
RR,Alto Alegre,21096,140005,Roraima,Boa Vista,Norte,2.99382294765484,-61.3140223901178,2.81668191910439,-60.6705326729651,-4.378478204516477,-57.176016723082924
RR,Boa Vista,413486,140010,Roraima,Boa Vista,Norte,2.81668191910439,-60.6705326729651,2.81668191910439,-60.6705326729651,-4.378478204516477,-57.176016723082924
RR,Bonfim,13923,140015,Roraima,Boa Vista,Norte,3.35028861911032,-59.8780066289099,2.81668191910439,-60.6705326729651,-4.378478204516477,-57.176016723082924
RR,Cantá,18682,140017,Roraima,Boa Vista,Norte,2.60766639841651,-60.6020628476112,2.81668191910439,-60.6705326729651,-4.378478204516477,-57.176016723082924
RR,Caracaraí,20957,140020,Roraima,Boa Vista,Norte,1.80387124729759,-61.14917687013,2.81668191910439,-60.6705326729651,-4.378478204516477,-57.176016723082924
RR,Caroebe,10656,140023,Roraima,Boa Vista,Norte,0.872674507186562,-59.6948100736757,2.81668191910439,-60.6705326729651,-4.378478204516477,-57.176016723082924
RR,Iracema,10023,140028,Roraima,Boa Vista,Norte,2.16821476520387,-61.0522585850197,2.81668191910439,-60.6705326729651,-4.378478204516477,-57.176016723082924
RR,Mucajaí,18095,140030,Roraima,Boa Vista,Norte,2.47977223505342,-60.9115185306216,2.81668191910439,-60.6705326729651,-4.378478204516477,-57.176016723082924
RR,Normandia,13986,140040,Roraima,Boa Vista,Norte,3.88297828530181,-59.6352062835683,2.81668191910439,-60.6705326729651,-4.378478204516477,-57.176016723082924
RR,Pacaraima,19305,140045,Roraima,Boa Vista,Norte,4.47525934021226,-61.1473063471493,2.81668191910439,-60.6705326729651,-4.378478204516477,-57.176016723082924
RR,Rorainópolis,32647,140047,Roraima,Boa Vista,Norte,0.937195393597556,-60.4250604939819,2.81668191910439,-60.6705326729651,-4.378478204516477,-57.176016723082924
RR,São João da Baliza,8858,140050,Roraima,Boa Vista,Norte,0.947157427466681,-59.9060443451544,2.81668191910439,-60.6705326729651,-4.378478204516477,-57.176016723082924
RR,São Luiz,7315,140060,Roraima,Boa Vista,Norte,1.01811162739126,-60.0282667741903,2.81668191910439,-60.6705326729651,-4.378478204516477,-57.176016723082924
RR,Uiramutã,13751,140070,Roraima,Boa Vista,Norte,4.58544038754255,-60.195716148042,2.81668191910439,-60.6705326729651,-4.378478204516477,-57.176016723082924
PA,Abaetetuba,158188,150010,Pará,Belém,Norte,-1.72346986284591,-48.8844038207231,-1.459845,-48.4878256874876,-4.378478204516477,-57.176016723082924
PA,Abel Figueiredo,6136,150013,Pará,Belém,Norte,-4.9513908955313,-48.3967621257945,-1.459845,-48.4878256874876,-4.378478204516477,-57.176016723082924
PA,Acará,59023,150020,Pará,Belém,Norte,-1.9634365,-48.2004564317501,-1.459845,-48.4878256874876,-4.378478204516477,-57.176016723082924
PA,Afuá,37765,150030,Pará,Belém,Norte,-0.159171693779797,-50.3914275892332,-1.459845,-48.4878256874876,-4.378478204516477,-57.176016723082924
PA,Água Azul do Norte,18080,150034,Pará,Belém,Norte,-6.80494886740538,-50.4852745072531,-1.459845,-48.4878256874876,-4.378478204516477,-57.176016723082924
PA,Alenquer,69377,150040,Pará,Belém,Norte,-1.951397505,-54.7408623501896,-1.459845,-48.4878256874876,-4.378478204516477,-57.176016723082924
PA,Almeirim,34280,150050,Pará,Belém,Norte,-1.52733880276478,-52.5768350868127,-1.459845,-48.4878256874876,-4.378478204516477,-57.176016723082924
PA,Altamira,126279,150060,Pará,Belém,Norte,-3.20565951,-52.2143763052078,-1.459845,-48.4878256874876,-4.378478204516477,-57.176016723082924
PA,Anajás,28011,150070,Pará,Belém,Norte,-0.984451394008702,-49.945001040544,-1.459845,-48.4878256874876,-4.378478204516477,-57.176016723082924
PA,Ananindeua,478778,150080,Pará,Belém,Norte,-1.36871356826946,-48.372066654168,-1.459845,-48.4878256874876,-4.378478204516477,-57.176016723082924
PA,Anapu,31850,150085,Pará,Belém,Norte,-3.47610463506868,-51.2016217984581,-1.459845,-48.4878256874876,-4.378478204516477,-57.176016723082924
PA,Augusto Corrêa,44573,150090,Pará,Belém,Norte,-1.02292101,-46.6416457856711,-1.459845,-48.4878256874876,-4.378478204516477,-57.176016723082924
PA,Aurora do Pará,23774,150095,Pará,Belém,Norte,-2.12937601319444,-47.5561746036128,-1.459845,-48.4878256874876,-4.378478204516477,-57.176016723082924
PA,Aveiro,18290,150100,Pará,Belém,Norte,-3.60559525928393,-55.3307343898178,-1.459845,-48.4878256874876,-4.378478204516477,-57.176016723082924
PA,Bagre,31892,150110,Pará,Belém,Norte,-1.88980806036172,-50.2219869206135,-1.459845,-48.4878256874876,-4.378478204516477,-57.176016723082924
PA,Baião,51641,150120,Pará,Belém,Norte,-2.79196186136136,-49.6727533733253,-1.459845,-48.4878256874876,-4.378478204516477,-57.176016723082924
PA,Bannach,4031,150125,Pará,Belém,Norte,-7.3510721924244,-50.4060471215195,-1.459845,-48.4878256874876,-4.378478204516477,-57.176016723082924
PA,Barcarena,126650,150130,Pará,Belém,Norte,-1.505767005,-48.6270728925156,-1.459845,-48.4878256874876,-4.378478204516477,-57.176016723082924
PA,Belém,1303403,150140,Pará,Belém,Norte,-1.459845,-48.4878256874876,-1.459845,-48.4878256874876,-4.378478204516477,-57.176016723082924
PA,Belterra,18099,150145,Pará,Belém,Norte,-2.64902016946856,-54.9426747393262,-1.459845,-48.4878256874876,-4.378478204516477,-57.176016723082924
PA,Benevides,63567,150150,Pará,Belém,Norte,-1.361437515,-48.2418364505703,-1.459845,-48.4878256874876,-4.378478204516477,-57.176016723082924
PA,Bom Jesus do Tocantins,18005,150157,Pará,Belém,Norte,-5.04736270432029,-48.5990399590615,-1.459845,-48.4878256874876,-4.378478204516477,-57.176016723082924
PA,Bonito,12622,150160,Pará,Belém,Norte,-1.36747435687254,-47.3058918168639,-1.459845,-48.4878256874876,-4.378478204516477,-57.176016723082924
PA,Bragança,123082,150170,Pará,Belém,Norte,-1.05352395620564,-46.765754213664,-1.459845,-48.4878256874876,-4.378478204516477,-57.176016723082924
PA,Brasil Novo,24718,150172,Pará,Belém,Norte,-3.29780370400837,-52.5434411922788,-1.459845,-48.4878256874876,-4.378478204516477,-57.176016723082924
PA,Brejo Grande do Araguaia,6783,150175,Pará,Belém,Norte,-5.70729615383609,-48.4057604223874,-1.459845,-48.4878256874876,-4.378478204516477,-57.176016723082924
PA,Breu Branco,45712,150178,Pará,Belém,Norte,-3.77813541287867,-49.5698796832857,-1.459845,-48.4878256874876,-4.378478204516477,-57.176016723082924
PA,Breves,106968,150180,Pará,Belém,Norte,-1.6907365,-50.4808947990195,-1.459845,-48.4878256874876,-4.378478204516477,-57.176016723082924
PA,Bujaru,24383,150190,Pará,Belém,Norte,-1.51399146230061,-48.035875014396,-1.459845,-48.4878256874876,-4.378478204516477,-57.176016723082924
PA,Cachoeira do Piriá,19630,150195,Pará,Belém,Norte,-1.75289700493124,-46.5473914166255,-1.459845,-48.4878256874876,-4.378478204516477,-57.176016723082924
PA,Cachoeira do Arari,23981,150200,Pará,Belém,Norte,-1.00878626563928,-48.9606675773871,-1.459845,-48.4878256874876,-4.378478204516477,-57.176016723082924
PA,Cametá,134184,150210,Pará,Belém,Norte,-2.24683848,-49.497830168997,-1.459845,-48.4878256874876,-4.378478204516477,-57.176016723082924
PA,Canaã dos Carajás,77079,150215,Pará,Belém,Norte,-6.5321966156294,-49.8489584319153,-1.459845,-48.4878256874876,-4.378478204516477,-57.176016723082924
PA,Capanema,70394,150220,Pará,Belém,Norte,-1.192441995,-47.1751261231344,-1.459845,-48.4878256874876,-4.378478204516477,-57.176016723082924
PA,Capitão Poço,56506,150230,Pará,Belém,Norte,-1.74618729323752,-47.0628253774009,-1.459845,-48.4878256874876,-4.378478204516477,-57.176016723082924
PA,Castanhal,192256,150240,Pará,Belém,Norte,-1.29575680504525,-47.9266431419442,-1.459845,-48.4878256874876,-4.378478204516477,-57.176016723082924
PA,Chaves,20757,150250,Pará,Belém,Norte,-0.162437290121912,-49.9893186050714,-1.459845,-48.4878256874876,-4.378478204516477,-57.176016723082924
PA,Colares,12868,150260,Pará,Belém,Norte,-0.932091243957739,-48.2887284319494,-1.459845,-48.4878256874876,-4.378478204516477,-57.176016723082924
PA,Conceição do Araguaia,44617,150270,Pará,Belém,Norte,-8.26486353,-49.2645008124957,-1.459845,-48.4878256874876,-4.378478204516477,-57.176016723082924
PA,Concórdia do Pará,26881,150275,Pará,Belém,Norte,-1.98452146277275,-47.9498869390047,-1.459845,-48.4878256874876,-4.378478204516477,-57.176016723082924
PA,Cumaru do Norte,14036,150276,Pará,Belém,Norte,-7.81110653689927,-50.7715783775131,-1.459845,-48.4878256874876,-4.378478204516477,-57.176016723082924
PA,Curionópolis,19950,150277,Pará,Belém,Norte,-6.09681995220666,-49.6022142249504,-1.459845,-48.4878256874876,-4.378478204516477,-57.176016723082924
PA,Curralinho,33903,150280,Pará,Belém,Norte,-1.80942341966693,-49.7915228470854,-1.459845,-48.4878256874876,-4.378478204516477,-57.176016723082924
PA,Curuá,14117,150285,Pará,Belém,Norte,-1.88992870430549,-55.1196786087308,-1.459845,-48.4878256874876,-4.378478204516477,-57.176016723082924
PA,Curuçá,41262,150290,Pará,Belém,Norte,-0.73249551,-47.8512650859352,-1.459845,-48.4878256874876,-4.378478204516477,-57.176016723082924
PA,Dom Eliseu,58484,150293,Pará,Belém,Norte,-4.29077772,-47.5559148859934,-1.459845,-48.4878256874876,-4.378478204516477,-57.176016723082924
PA,Eldorado do Carajás,28192,150295,Pará,Belém,Norte,-6.10352516107139,-49.3739519421522,-1.459845,-48.4878256874876,-4.378478204516477,-57.176016723082924
PA,Faro,8728,150300,Pará,Belém,Norte,-2.17297524194977,-56.745753017307,-1.459845,-48.4878256874876,-4.378478204516477,-57.176016723082924
PA,Floresta do Araguaia,17898,150304,Pará,Belém,Norte,-7.55870087237008,-49.6975784122373,-1.459845,-48.4878256874876,-4.378478204516477,-57.176016723082924
PA,Garrafão do Norte,24703,150307,Pará,Belém,Norte,-1.93169704310669,-47.0450460172973,-1.459845,-48.4878256874876,-4.378478204516477,-57.176016723082924
PA,Goianésia do Pará,26362,150309,Pará,Belém,Norte,-3.842468,-49.1010449237426,-1.459845,-48.4878256874876,-4.378478204516477,-57.176016723082924
PA,Gurupá,31786,150310,Pará,Belém,Norte,-1.404918,-51.6436957233941,-1.459845,-48.4878256874876,-4.378478204516477,-57.176016723082924
PA,Igarapé-Açu,35797,150320,Pará,Belém,Norte,-1.124322,-47.6223754920271,-1.459845,-48.4878256874876,-4.378478204516477,-57.176016723082924
PA,Igarapé-Miri,64831,150330,Pará,Belém,Norte,-1.983116,-48.9622994689466,-1.459845,-48.4878256874876,-4.378478204516477,-57.176016723082924
PA,Inhangapi,10325,150340,Pará,Belém,Norte,-1.42658198091031,-47.9133927465885,-1.459845,-48.4878256874876,-4.378478204516477,-57.176016723082924
PA,Ipixuna do Pará,30329,150345,Pará,Belém,Norte,-2.5575285,-47.4997175887983,-1.459845,-48.4878256874876,-4.378478204516477,-57.176016723082924
PA,Irituia,30955,150350,Pará,Belém,Norte,-1.771474995,-47.4407556128483,-1.459845,-48.4878256874876,-4.378478204516477,-57.176016723082924
PA,Itaituba,123314,150360,Pará,Belém,Norte,-4.26372948,-55.9900488572777,-1.459845,-48.4878256874876,-4.378478204516477,-57.176016723082924
PA,Itupiranga,49754,150370,Pará,Belém,Norte,-5.12883702636091,-49.3244258612861,-1.459845,-48.4878256874876,-4.378478204516477,-57.176016723082924
PA,Jacareacanga,24042,150375,Pará,Belém,Norte,-6.22355173138645,-57.7663398583794,-1.459845,-48.4878256874876,-4.378478204516477,-57.176016723082924
PA,Jacundá,37707,150380,Pará,Belém,Norte,-4.448405475,-49.1127815625675,-1.459845,-48.4878256874876,-4.378478204516477,-57.176016723082924
PA,Juruti,50881,150390,Pará,Belém,Norte,-2.155252995,-56.0949976884001,-1.459845,-48.4878256874876,-4.378478204516477,-57.176016723082924
PA,Limoeiro do Ajuru,29569,150400,Pará,Belém,Norte,-1.8919485,-49.3815339012019,-1.459845,-48.4878256874876,-4.378478204516477,-57.176016723082924
PA,Mãe do Rio,34353,150405,Pará,Belém,Norte,-2.04770744079076,-47.5522901794773,-1.459845,-48.4878256874876,-4.378478204516477,-57.176016723082924
PA,Magalhães Barata,8115,150410,Pará,Belém,Norte,-0.795850156021161,-47.5991818964912,-1.459845,-48.4878256874876,-4.378478204516477,-57.176016723082924
PA,Marabá,266533,150420,Pará,Belém,Norte,-5.35260576313025,-49.1420253334067,-1.459845,-48.4878256874876,-4.378478204516477,-57.176016723082924
PA,Maracanã,25971,150430,Pará,Belém,Norte,-0.762419459981231,-47.4552679594076,-1.459845,-48.4878256874876,-4.378478204516477,-57.176016723082924
PA,Marapanim,26573,150440,Pará,Belém,Norte,-0.712150996347819,-47.7025487537677,-1.459845,-48.4878256874876,-4.378478204516477,-57.176016723082924
PA,Marituba,111785,150442,Pará,Belém,Norte,-1.3464172655758,-48.340535877783,-1.459845,-48.4878256874876,-4.378478204516477,-57.176016723082924
PA,Medicilândia,27094,150445,Pará,Belém,Norte,-3.44541741218688,-52.8883453507243,-1.459845,-48.4878256874876,-4.378478204516477,-57.176016723082924
PA,Melgaço,27881,150450,Pará,Belém,Norte,-1.803446698641,-50.7174646976964,-1.459845,-48.4878256874876,-4.378478204516477,-57.176016723082924
PA,Mocajuba,27198,150460,Pará,Belém,Norte,-2.58287297327153,-49.5090234612729,-1.459845,-48.4878256874876,-4.378478204516477,-57.176016723082924
PA,Moju,84094,150470,Pará,Belém,Norte,-1.885889,-48.7671991273719,-1.459845,-48.4878256874876,-4.378478204516477,-57.176016723082924
PA,Mojuí dos Campos,23501,150475,Pará,Belém,Norte,-2.68,-54.65,-1.459845,-48.4878256874876,-4.378478204516477,-57.176016723082924
PA,Monte Alegre,60012,150480,Pará,Belém,Norte,-2.003328,-54.073374725636,-1.459845,-48.4878256874876,-4.378478204516477,-57.176016723082924
PA,Muaná,45368,150490,Pará,Belém,Norte,-1.5300262083549,-49.2168324424737,-1.459845,-48.4878256874876,-4.378478204516477,-57.176016723082924
PA,Nova Esperança do Piriá,20478,150495,Pará,Belém,Norte,-2.2676259890313,-46.9620928836736,-1.459845,-48.4878256874876,-4.378478204516477,-57.176016723082924
PA,Nova Ipixuna,13955,150497,Pará,Belém,Norte,-4.92308630702649,-49.0798869380164,-1.459845,-48.4878256874876,-4.378478204516477,-57.176016723082924
PA,Nova Timboteua,12806,150500,Pará,Belém,Norte,-1.20414364746687,-47.3932022764599,-1.459845,-48.4878256874876,-4.378478204516477,-57.176016723082924
PA,Novo Progresso,33638,150503,Pará,Belém,Norte,-7.03483591328812,-55.4198701179784,-1.459845,-48.4878256874876,-4.378478204516477,-57.176016723082924
PA,Novo Repartimento,60732,150506,Pará,Belém,Norte,-4.2481485,-49.9486382443426,-1.459845,-48.4878256874876,-4.378478204516477,-57.176016723082924
PA,Óbidos,52229,150510,Pará,Belém,Norte,-1.90923549588121,-55.5163235097126,-1.459845,-48.4878256874876,-4.378478204516477,-57.176016723082924
PA,Oeiras do Pará,33844,150520,Pará,Belém,Norte,-2.004734,-49.8551061087735,-1.459845,-48.4878256874876,-4.378478204516477,-57.176016723082924
PA,Oriximiná,68294,150530,Pará,Belém,Norte,-1.7637535,-55.8627995152359,-1.459845,-48.4878256874876,-4.378478204516477,-57.176016723082924
PA,Ourém,17855,150540,Pará,Belém,Norte,-1.54894714230244,-47.1176193628501,-1.459845,-48.4878256874876,-4.378478204516477,-57.176016723082924
PA,Ourilândia do Norte,32467,150543,Pará,Belém,Norte,-6.74061708637736,-51.0908327746816,-1.459845,-48.4878256874876,-4.378478204516477,-57.176016723082924
PA,Pacajá,41097,150548,Pará,Belém,Norte,-3.8303057037573,-50.6348408304298,-1.459845,-48.4878256874876,-4.378478204516477,-57.176016723082924
PA,Palestina do Pará,6885,150549,Pará,Belém,Norte,-5.74993410622605,-48.3217937261637,-1.459845,-48.4878256874876,-4.378478204516477,-57.176016723082924
PA,Paragominas,105550,150550,Pará,Belém,Norte,-2.9941905,-47.3569615610519,-1.459845,-48.4878256874876,-4.378478204516477,-57.176016723082924
PA,Parauapebas,267836,150553,Pará,Belém,Norte,-6.07272988763184,-49.900780634297,-1.459845,-48.4878256874876,-4.378478204516477,-57.176016723082924
PA,Pau D'Arco,6931,150555,Pará,Belém,Norte,-7.83679440397357,-50.0482755318998,-1.459845,-48.4878256874876,-4.378478204516477,-57.176016723082924
PA,Peixe-Boi,8285,150560,Pará,Belém,Norte,-1.18956924075654,-47.3179270215591,-1.459845,-48.4878256874876,-4.378478204516477,-57.176016723082924
PA,Piçarra,12832,150563,Pará,Belém,Norte,-6.45367623455792,-48.8684006672187,-1.459845,-48.4878256874876,-4.378478204516477,-57.176016723082924
PA,Placas,18668,150565,Pará,Belém,Norte,-3.86731556213536,-54.2169681312654,-1.459845,-48.4878256874876,-4.378478204516477,-57.176016723082924
PA,Ponta de Pedras,24984,150570,Pará,Belém,Norte,-1.3965999975235,-48.8717855600433,-1.459845,-48.4878256874876,-4.378478204516477,-57.176016723082924
PA,Portel,62503,150580,Pará,Belém,Norte,-1.936451,-50.822490442211,-1.459845,-48.4878256874876,-4.378478204516477,-57.176016723082924
PA,Porto de Moz,40597,150590,Pará,Belém,Norte,-1.74609008880885,-52.2424769190201,-1.459845,-48.4878256874876,-4.378478204516477,-57.176016723082924
PA,Prainha,35577,150600,Pará,Belém,Norte,-1.8056945,-53.4818139407895,-1.459845,-48.4878256874876,-4.378478204516477,-57.176016723082924
PA,Primavera,10851,150610,Pará,Belém,Norte,-0.940111515930574,-47.1172512589126,-1.459845,-48.4878256874876,-4.378478204516477,-57.176016723082924
PA,Quatipuru,11524,150611,Pará,Belém,Norte,-0.900115853739325,-47.006786993576,-1.459845,-48.4878256874876,-4.378478204516477,-57.176016723082924
PA,Redenção,85597,150613,Pará,Belém,Norte,-8.0276045,-50.0296418255093,-1.459845,-48.4878256874876,-4.378478204516477,-57.176016723082924
PA,Rio Maria,18384,150616,Pará,Belém,Norte,-7.31111524468815,-50.0464108775224,-1.459845,-48.4878256874876,-4.378478204516477,-57.176016723082924
PA,Rondon do Pará,53143,150618,Pará,Belém,Norte,-4.77782172703555,-48.0699737493982,-1.459845,-48.4878256874876,-4.378478204516477,-57.176016723082924
PA,Rurópolis,35769,150619,Pará,Belém,Norte,-4.09906539,-54.9058622598691,-1.459845,-48.4878256874876,-4.378478204516477,-57.176016723082924
PA,Salinópolis,44772,150620,Pará,Belém,Norte,-0.623638,-47.3531202631536,-1.459845,-48.4878256874876,-4.378478204516477,-57.176016723082924
PA,Salvaterra,24129,150630,Pará,Belém,Norte,-0.754525974353047,-48.5131865994469,-1.459845,-48.4878256874876,-4.378478204516477,-57.176016723082924
PA,Santa Bárbara do Pará,21087,150635,Pará,Belém,Norte,-1.22943946699244,-48.2977406497887,-1.459845,-48.4878256874876,-4.378478204516477,-57.176016723082924
PA,Santa Cruz do Arari,7445,150640,Pará,Belém,Norte,-0.659974125599254,-49.1716155661252,-1.459845,-48.4878256874876,-4.378478204516477,-57.176016723082924
PA,Santa Izabel do Pará,73019,150650,Pará,Belém,Norte,-1.29739590129143,-48.1630599409531,-1.459845,-48.4878256874876,-4.378478204516477,-57.176016723082924
PA,Santa Luzia do Pará,20370,150655,Pará,Belém,Norte,-1.51882789138752,-46.9061692026983,-1.459845,-48.4878256874876,-4.378478204516477,-57.176016723082924
PA,Santa Maria das Barreiras,16548,150658,Pará,Belém,Norte,-8.87055053969294,-49.7193518572257,-1.459845,-48.4878256874876,-4.378478204516477,-57.176016723082924
PA,Santa Maria do Pará,24624,150660,Pará,Belém,Norte,-1.3478664592967,-47.5746954138091,-1.459845,-48.4878256874876,-4.378478204516477,-57.176016723082924
PA,Santana do Araguaia,32413,150670,Pará,Belém,Norte,-9.329424525,-50.344804321129,-1.459845,-48.4878256874876,-4.378478204516477,-57.176016723082924
PA,Santarém,331942,150680,Pará,Belém,Norte,-2.43621332999996,-54.7185701672711,-1.459845,-48.4878256874876,-4.378478204516477,-57.176016723082924
PA,Santarém Novo,6116,150690,Pará,Belém,Norte,-0.928719535783208,-47.400924744868,-1.459845,-48.4878256874876,-4.378478204516477,-57.176016723082924
PA,Santo Antônio do Tauá,27461,150700,Pará,Belém,Norte,-1.1516925,-48.1324330748457,-1.459845,-48.4878256874876,-4.378478204516477,-57.176016723082924
PA,São Caetano de Odivelas,16666,150710,Pará,Belém,Norte,-0.746617759994861,-48.0258054980831,-1.459845,-48.4878256874876,-4.378478204516477,-57.176016723082924
PA,São Domingos do Araguaia,21092,150715,Pará,Belém,Norte,-5.549841,-48.7203734107844,-1.459845,-48.4878256874876,-4.378478204516477,-57.176016723082924
PA,São Domingos do Capim,30599,150720,Pará,Belém,Norte,-1.6758145,-47.7747845692257,-1.459845,-48.4878256874876,-4.378478204516477,-57.176016723082924
PA,São Félix do Xingu,65418,150730,Pará,Belém,Norte,-6.64248327834078,-51.9937825239643,-1.459845,-48.4878256874876,-4.378478204516477,-57.176016723082924
PA,São Francisco do Pará,14894,150740,Pará,Belém,Norte,-1.17018878467698,-47.7905146107051,-1.459845,-48.4878256874876,-4.378478204516477,-57.176016723082924
PA,São Geraldo do Araguaia,24255,150745,Pará,Belém,Norte,-6.39895797,-48.5557124861926,-1.459845,-48.4878256874876,-4.378478204516477,-57.176016723082924
PA,São João da Ponta,4430,150746,Pará,Belém,Norte,-0.851002145269607,-47.9207241656462,-1.459845,-48.4878256874876,-4.378478204516477,-57.176016723082924
PA,São João de Pirabas,20689,150747,Pará,Belém,Norte,-0.766442531515371,-47.1726742979205,-1.459845,-48.4878256874876,-4.378478204516477,-57.176016723082924
PA,São João do Araguaia,13664,150750,Pará,Belém,Norte,-5.35900272441641,-48.7886334020461,-1.459845,-48.4878256874876,-4.378478204516477,-57.176016723082924
PA,São Miguel do Guamá,52894,150760,Pará,Belém,Norte,-1.61713591449048,-47.4824089444892,-1.459845,-48.4878256874876,-4.378478204516477,-57.176016723082924
PA,São Sebastião da Boa Vista,25643,150770,Pará,Belém,Norte,-1.7188505,-49.5323121746161,-1.459845,-48.4878256874876,-4.378478204516477,-57.176016723082924
PA,Sapucaia,5847,150775,Pará,Belém,Norte,-6.94285711257384,-49.7035807118843,-1.459845,-48.4878256874876,-4.378478204516477,-57.176016723082924
PA,Senador José Porfírio,22576,150780,Pará,Belém,Norte,-2.59485041832352,-51.9530564180171,-1.459845,-48.4878256874876,-4.378478204516477,-57.176016723082924
PA,Soure,24204,150790,Pará,Belém,Norte,-0.7259255,-48.5160126622773,-1.459845,-48.4878256874876,-4.378478204516477,-57.176016723082924
PA,Tailândia,72493,150795,Pará,Belém,Norte,-2.9370795,-48.9512816295758,-1.459845,-48.4878256874876,-4.378478204516477,-57.176016723082924
PA,Terra Alta,10400,150796,Pará,Belém,Norte,-1.03482666361629,-47.9078083483744,-1.459845,-48.4878256874876,-4.378478204516477,-57.176016723082924
PA,Terra Santa,18782,150797,Pará,Belém,Norte,-2.10811447373903,-56.4909047722432,-1.459845,-48.4878256874876,-4.378478204516477,-57.176016723082924
PA,Tomé-Açu,67585,150800,Pará,Belém,Norte,-2.41936685526733,-48.146896586572,-1.459845,-48.4878256874876,-4.378478204516477,-57.176016723082924
PA,Tracuateua,28595,150803,Pará,Belém,Norte,-1.06878405856835,-46.8994783371171,-1.459845,-48.4878256874876,-4.378478204516477,-57.176016723082924
PA,Trairão,15242,150805,Pará,Belém,Norte,-4.69981914969727,-55.9961700349273,-1.459845,-48.4878256874876,-4.378478204516477,-57.176016723082924
PA,Tucumã,39550,150808,Pará,Belém,Norte,-6.74997200738229,-51.1395392466358,-1.459845,-48.4878256874876,-4.378478204516477,-57.176016723082924
PA,Tucuruí,91306,150810,Pará,Belém,Norte,-3.76688908431164,-49.6671843672248,-1.459845,-48.4878256874876,-4.378478204516477,-57.176016723082924
PA,Ulianópolis,37972,150812,Pará,Belém,Norte,-3.75719301,-47.5031447549992,-1.459845,-48.4878256874876,-4.378478204516477,-57.176016723082924
PA,Uruará,43558,150815,Pará,Belém,Norte,-3.7065285,-53.7370310504594,-1.459845,-48.4878256874876,-4.378478204516477,-57.176016723082924
PA,Vigia,50832,150820,Pará,Belém,Norte,-0.855532573667763,-48.1414985852069,-1.459845,-48.4878256874876,-4.378478204516477,-57.176016723082924
PA,Viseu,58692,150830,Pará,Belém,Norte,-1.20327852667727,-46.1387652161496,-1.459845,-48.4878256874876,-4.378478204516477,-57.176016723082924
PA,Vitória do Xingu,15607,150835,Pará,Belém,Norte,-2.8837657102288,-52.0112603538154,-1.459845,-48.4878256874876,-4.378478204516477,-57.176016723082924
PA,Xinguara,52893,150840,Pará,Belém,Norte,-7.10151282714604,-49.9427005843752,-1.459845,-48.4878256874876,-4.378478204516477,-57.176016723082924
AP,Serra do Navio,4673,160005,Amapá,Macapá,Norte,0.897841040971924,-52.0035384352918,0.03895101,-51.057405457036,-4.378478204516477,-57.176016723082924
AP,Amapá,7943,160010,Amapá,Macapá,Norte,2.05392124468205,-50.7932144702699,0.03895101,-51.057405457036,-4.378478204516477,-57.176016723082924
AP,Pedra Branca do Amapari,12847,160015,Amapá,Macapá,Norte,0.776882860563944,-51.9465942732743,0.03895101,-51.057405457036,-4.378478204516477,-57.176016723082924
AP,Calçoene,10612,160020,Amapá,Macapá,Norte,2.49655904456698,-50.9447727342665,0.03895101,-51.057405457036,-4.378478204516477,-57.176016723082924
AP,Cutias,4461,160021,Amapá,Macapá,Norte,0.97107805541715,-50.8016260298776,0.03895101,-51.057405457036,-4.378478204516477,-57.176016723082924
AP,Ferreira Gomes,6666,160023,Amapá,Macapá,Norte,0.853977393142956,-51.1874290460046,0.03895101,-51.057405457036,-4.378478204516477,-57.176016723082924
AP,Itaubal,5599,160025,Amapá,Macapá,Norte,0.600653288304609,-50.7001794374183,0.03895101,-51.057405457036,-4.378478204516477,-57.176016723082924
AP,Laranjal do Jari,35114,160027,Amapá,Macapá,Norte,-0.8556645,-52.5390207369393,0.03895101,-51.057405457036,-4.378478204516477,-57.176016723082924
AP,Macapá,442933,160030,Amapá,Macapá,Norte,0.03895101,-51.057405457036,0.03895101,-51.057405457036,-4.378478204516477,-57.176016723082924
AP,Mazagão,21924,160040,Amapá,Macapá,Norte,-0.124396328821101,-51.2860768561013,0.03895101,-51.057405457036,-4.378478204516477,-57.176016723082924
AP,Oiapoque,27482,160050,Amapá,Macapá,Norte,3.85113073255929,-51.8305525552731,0.03895101,-51.057405457036,-4.378478204516477,-57.176016723082924
AP,Porto Grande,17848,160053,Amapá,Macapá,Norte,0.712554701824323,-51.4144488229915,0.03895101,-51.057405457036,-4.378478204516477,-57.176016723082924
AP,Pracuúba,3803,160055,Amapá,Macapá,Norte,1.74250848707834,-50.7842537212883,0.03895101,-51.057405457036,-4.378478204516477,-57.176016723082924
AP,Santana,107618,160060,Amapá,Macapá,Norte,-0.0383734790956603,-51.1728464650687,0.03895101,-51.057405457036,-4.378478204516477,-57.176016723082924
AP,Tartarugalzinho,12945,160070,Amapá,Macapá,Norte,1.50984824031107,-50.9127861523142,0.03895101,-51.057405457036,-4.378478204516477,-57.176016723082924
AP,Vitória do Jari,11291,160080,Amapá,Macapá,Norte,-0.918977088542799,-52.4196147795718,0.03895101,-51.057405457036,-4.378478204516477,-57.176016723082924
TO,Abreulândia,2576,170025,Tocantins,Palmas,Norte,-9.62179071199836,-49.1624375554797,-10.1632533267928,-48.3510437082462,-4.378478204516477,-57.176016723082924
TO,Aguiarnópolis,4497,170030,Tocantins,Palmas,Norte,-6.5471708206181,-47.470456587945,-10.1632533267928,-48.3510437082462,-4.378478204516477,-57.176016723082924
TO,Aliança do Tocantins,5147,170035,Tocantins,Palmas,Norte,-11.3037430465089,-48.9412400221409,-10.1632533267928,-48.3510437082462,-4.378478204516477,-57.176016723082924
TO,Almas,6499,170040,Tocantins,Palmas,Norte,-11.5745234694478,-47.1741716842358,-10.1632533267928,-48.3510437082462,-4.378478204516477,-57.176016723082924
TO,Alvorada,8802,170070,Tocantins,Palmas,Norte,-12.4788153208227,-49.12681140673,-10.1632533267928,-48.3510437082462,-4.378478204516477,-57.176016723082924
TO,Ananás,10325,170100,Tocantins,Palmas,Norte,-6.36281815410008,-48.0797646061948,-10.1632533267928,-48.3510437082462,-4.378478204516477,-57.176016723082924
TO,Angico,2876,170105,Tocantins,Palmas,Norte,-6.3877527497248,-47.8620778391735,-10.1632533267928,-48.3510437082462,-4.378478204516477,-57.176016723082924
TO,Aparecida do Rio Negro,4856,170110,Tocantins,Palmas,Norte,-9.9558777145605,-47.9766700113511,-10.1632533267928,-48.3510437082462,-4.378478204516477,-57.176016723082924
TO,Aragominas,5290,170130,Tocantins,Palmas,Norte,-7.1643492714437,-48.5234301922917,-10.1632533267928,-48.3510437082462,-4.378478204516477,-57.176016723082924
TO,Araguacema,5927,170190,Tocantins,Palmas,Norte,-8.80180254411115,-49.5618126396073,-10.1632533267928,-48.3510437082462,-4.378478204516477,-57.176016723082924
TO,Araguaçu,8133,170200,Tocantins,Palmas,Norte,-12.9255837118616,-49.8286124432782,-10.1632533267928,-48.3510437082462,-4.378478204516477,-57.176016723082924
TO,Araguaína,171301,170210,Tocantins,Palmas,Norte,-7.19132893965496,-48.2087052518558,-10.1632533267928,-48.3510437082462,-4.378478204516477,-57.176016723082924
TO,Araguanã,4310,170215,Tocantins,Palmas,Norte,-6.58224942002919,-48.6437495469431,-10.1632533267928,-48.3510437082462,-4.378478204516477,-57.176016723082924
TO,Araguatins,31918,170220,Tocantins,Palmas,Norte,-5.65058647299995,-48.1235073430294,-10.1632533267928,-48.3510437082462,-4.378478204516477,-57.176016723082924
TO,Arapoema,5550,170230,Tocantins,Palmas,Norte,-7.65256973541903,-49.0756373852721,-10.1632533267928,-48.3510437082462,-4.378478204516477,-57.176016723082924
TO,Arraias,10287,170240,Tocantins,Palmas,Norte,-12.9344198592593,-46.9461070585534,-10.1632533267928,-48.3510437082462,-4.378478204516477,-57.176016723082924
TO,Augustinópolis,17484,170255,Tocantins,Palmas,Norte,-5.46541429589652,-47.8809567910047,-10.1632533267928,-48.3510437082462,-4.378478204516477,-57.176016723082924
TO,Aurora do Tocantins,3342,170270,Tocantins,Palmas,Norte,-12.7084898610615,-46.4070829808607,-10.1632533267928,-48.3510437082462,-4.378478204516477,-57.176016723082924
TO,Axixá do Tocantins,10262,170290,Tocantins,Palmas,Norte,-5.62430906592745,-47.7741560325221,-10.1632533267928,-48.3510437082462,-4.378478204516477,-57.176016723082924
TO,Babaçulândia,7880,170300,Tocantins,Palmas,Norte,-7.20186453206148,-47.7588161270324,-10.1632533267928,-48.3510437082462,-4.378478204516477,-57.176016723082924
TO,Bandeirantes do Tocantins,3407,170305,Tocantins,Palmas,Norte,-7.76485914125333,-48.5783806048644,-10.1632533267928,-48.3510437082462,-4.378478204516477,-57.176016723082924
TO,Barra do Ouro,4476,170307,Tocantins,Palmas,Norte,-7.69176659865687,-47.6871349692244,-10.1632533267928,-48.3510437082462,-4.378478204516477,-57.176016723082924
TO,Barrolândia,4846,170310,Tocantins,Palmas,Norte,-9.83165336453343,-48.7314605907218,-10.1632533267928,-48.3510437082462,-4.378478204516477,-57.176016723082924
TO,Bernardo Sayão,4229,170320,Tocantins,Palmas,Norte,-7.86851248331281,-48.8990543467276,-10.1632533267928,-48.3510437082462,-4.378478204516477,-57.176016723082924
TO,Bom Jesus do Tocantins,4038,170330,Tocantins,Palmas,Norte,-8.96334801285521,-48.1663804935405,-10.1632533267928,-48.3510437082462,-4.378478204516477,-57.176016723082924
TO,Brasilândia do Tocantins,1974,170360,Tocantins,Palmas,Norte,-8.38488935107799,-48.485374419124,-10.1632533267928,-48.3510437082462,-4.378478204516477,-57.176016723082924
TO,Brejinho de Nazaré,4725,170370,Tocantins,Palmas,Norte,-11.0108050561865,-48.5586602281507,-10.1632533267928,-48.3510437082462,-4.378478204516477,-57.176016723082924
TO,Buriti do Tocantins,10307,170380,Tocantins,Palmas,Norte,-5.31353885638917,-48.223250128075,-10.1632533267928,-48.3510437082462,-4.378478204516477,-57.176016723082924
TO,Cachoeirinha,1961,170382,Tocantins,Palmas,Norte,-6.11324164650466,-47.914197778559,-10.1632533267928,-48.3510437082462,-4.378478204516477,-57.176016723082924
TO,Campos Lindos,8653,170384,Tocantins,Palmas,Norte,-7.97168139413731,-46.8019743467067,-10.1632533267928,-48.3510437082462,-4.378478204516477,-57.176016723082924
TO,Cariri do Tocantins,4007,170386,Tocantins,Palmas,Norte,-11.8889974638744,-49.1710407289889,-10.1632533267928,-48.3510437082462,-4.378478204516477,-57.176016723082924
TO,Carmolândia,2201,170388,Tocantins,Palmas,Norte,-7.03147877786106,-48.3959599306274,-10.1632533267928,-48.3510437082462,-4.378478204516477,-57.176016723082924
TO,Carrasco Bonito,3318,170389,Tocantins,Palmas,Norte,-5.32266135485805,-48.0306334265692,-10.1632533267928,-48.3510437082462,-4.378478204516477,-57.176016723082924
TO,Caseara,4847,170390,Tocantins,Palmas,Norte,-9.26740621890348,-49.9486922677787,-10.1632533267928,-48.3510437082462,-4.378478204516477,-57.176016723082924
TO,Centenário,2131,170410,Tocantins,Palmas,Norte,-8.9584636390938,-47.3383985145873,-10.1632533267928,-48.3510437082462,-4.378478204516477,-57.176016723082924
TO,Chapada de Areia,1501,170460,Tocantins,Palmas,Norte,-10.1419885833334,-49.1831078580314,-10.1632533267928,-48.3510437082462,-4.378478204516477,-57.176016723082924
TO,Chapada da Natividade,3117,170510,Tocantins,Palmas,Norte,-11.6242678313621,-47.7539048918565,-10.1632533267928,-48.3510437082462,-4.378478204516477,-57.176016723082924
TO,Colinas do Tocantins,34233,170550,Tocantins,Palmas,Norte,-8.05462467549995,-48.4815945437489,-10.1632533267928,-48.3510437082462,-4.378478204516477,-57.176016723082924
TO,Combinado,4756,170555,Tocantins,Palmas,Norte,-12.8186076720311,-46.5520723402661,-10.1632533267928,-48.3510437082462,-4.378478204516477,-57.176016723082924
TO,Conceição do Tocantins,3887,170560,Tocantins,Palmas,Norte,-12.2172777669654,-47.292868810807,-10.1632533267928,-48.3510437082462,-4.378478204516477,-57.176016723082924
TO,Couto Magalhães,5331,170600,Tocantins,Palmas,Norte,-8.35511836963524,-49.176571570853,-10.1632533267928,-48.3510437082462,-4.378478204516477,-57.176016723082924
TO,Cristalândia,6371,170610,Tocantins,Palmas,Norte,-10.5907246371177,-49.1863002912612,-10.1632533267928,-48.3510437082462,-4.378478204516477,-57.176016723082924
TO,Crixás do Tocantins,1470,170625,Tocantins,Palmas,Norte,-11.1042742936043,-48.9155138256477,-10.1632533267928,-48.3510437082462,-4.378478204516477,-57.176016723082924
TO,Darcinópolis,5827,170650,Tocantins,Palmas,Norte,-6.71235100148176,-47.7521611102799,-10.1632533267928,-48.3510437082462,-4.378478204516477,-57.176016723082924
TO,Dianópolis,17739,170700,Tocantins,Palmas,Norte,-11.625231878065,-46.8204090669435,-10.1632533267928,-48.3510437082462,-4.378478204516477,-57.176016723082924
TO,Divinópolis do Tocantins,7024,170710,Tocantins,Palmas,Norte,-9.79530114022946,-49.2054131873503,-10.1632533267928,-48.3510437082462,-4.378478204516477,-57.176016723082924
TO,Dois Irmãos do Tocantins,6327,170720,Tocantins,Palmas,Norte,-9.26129670979711,-49.0673386442723,-10.1632533267928,-48.3510437082462,-4.378478204516477,-57.176016723082924
TO,Dueré,4248,170730,Tocantins,Palmas,Norte,-11.3412854167798,-49.2658759161628,-10.1632533267928,-48.3510437082462,-4.378478204516477,-57.176016723082924
TO,Esperantina,7530,170740,Tocantins,Palmas,Norte,-5.36660805940451,-48.5441476004124,-10.1632533267928,-48.3510437082462,-4.378478204516477,-57.176016723082924
TO,Fátima,3467,170755,Tocantins,Palmas,Norte,-10.7525087280848,-48.8989826586808,-10.1632533267928,-48.3510437082462,-4.378478204516477,-57.176016723082924
TO,Figueirópolis,5211,170765,Tocantins,Palmas,Norte,-12.1367799832225,-49.1738467307434,-10.1632533267928,-48.3510437082462,-4.378478204516477,-57.176016723082924
TO,Filadélfia,7712,170770,Tocantins,Palmas,Norte,-7.3376119059308,-47.484964141532,-10.1632533267928,-48.3510437082462,-4.378478204516477,-57.176016723082924
TO,Formoso do Araguaia,18881,170820,Tocantins,Palmas,Norte,-11.8051419686495,-49.5268603629125,-10.1632533267928,-48.3510437082462,-4.378478204516477,-57.176016723082924
TO,Tabocão,3455,170825,Tocantins,Palmas,Norte,-9.05896530114982,-48.5174264210488,-10.1632533267928,-48.3510437082462,-4.378478204516477,-57.176016723082924
TO,Goianorte,4738,170830,Tocantins,Palmas,Norte,-8.77052080482939,-48.9368901923611,-10.1632533267928,-48.3510437082462,-4.378478204516477,-57.176016723082924
TO,Goiatins,12433,170900,Tocantins,Palmas,Norte,-7.7091723901957,-47.3154354891583,-10.1632533267928,-48.3510437082462,-4.378478204516477,-57.176016723082924
TO,Guaraí,24775,170930,Tocantins,Palmas,Norte,-8.83616565750443,-48.5086406064702,-10.1632533267928,-48.3510437082462,-4.378478204516477,-57.176016723082924
TO,Gurupi,85125,170950,Tocantins,Palmas,Norte,-11.72977232286,-49.0714774689303,-10.1632533267928,-48.3510437082462,-4.378478204516477,-57.176016723082924
TO,Ipueiras,1590,170980,Tocantins,Palmas,Norte,-11.2462886215917,-48.4519262288947,-10.1632533267928,-48.3510437082462,-4.378478204516477,-57.176016723082924
TO,Itacajá,6819,171050,Tocantins,Palmas,Norte,-8.39098055231856,-47.768112402678,-10.1632533267928,-48.3510437082462,-4.378478204516477,-57.176016723082924
TO,Itaguatins,5172,171070,Tocantins,Palmas,Norte,-5.77538508840222,-47.4799359489833,-10.1632533267928,-48.3510437082462,-4.378478204516477,-57.176016723082924
TO,Itapiratins,3577,171090,Tocantins,Palmas,Norte,-8.38432959344297,-48.1111996094691,-10.1632533267928,-48.3510437082462,-4.378478204516477,-57.176016723082924
TO,Itaporã do Tocantins,2404,171110,Tocantins,Palmas,Norte,-8.56882861156054,-48.6932637032248,-10.1632533267928,-48.3510437082462,-4.378478204516477,-57.176016723082924
TO,Jaú do Tocantins,3334,171150,Tocantins,Palmas,Norte,-12.6529263692706,-48.5946082927248,-10.1632533267928,-48.3510437082462,-4.378478204516477,-57.176016723082924
TO,Juarina,2243,171180,Tocantins,Palmas,Norte,-8.11742396760678,-49.0986431854272,-10.1632533267928,-48.3510437082462,-4.378478204516477,-57.176016723082924
TO,Lagoa da Confusão,15288,171190,Tocantins,Palmas,Norte,-10.7886955575897,-49.620085339146,-10.1632533267928,-48.3510437082462,-4.378478204516477,-57.176016723082924
TO,Lagoa do Tocantins,3516,171195,Tocantins,Palmas,Norte,-10.2968866969998,-47.5614466302738,-10.1632533267928,-48.3510437082462,-4.378478204516477,-57.176016723082924
TO,Lajeado,3357,171200,Tocantins,Palmas,Norte,-9.74468243573559,-48.3585039506901,-10.1632533267928,-48.3510437082462,-4.378478204516477,-57.176016723082924
TO,Lavandeira,1626,171215,Tocantins,Palmas,Norte,-12.7916587876518,-46.5066757157435,-10.1632533267928,-48.3510437082462,-4.378478204516477,-57.176016723082924
TO,Lizarda,2999,171240,Tocantins,Palmas,Norte,-9.59457028780967,-46.6751654558461,-10.1632533267928,-48.3510437082462,-4.378478204516477,-57.176016723082924
TO,Luzinópolis,2717,171245,Tocantins,Palmas,Norte,-6.19398966023577,-47.856828041414,-10.1632533267928,-48.3510437082462,-4.378478204516477,-57.176016723082924
TO,Marianópolis do Tocantins,4615,171250,Tocantins,Palmas,Norte,-9.79888035935058,-49.6510339944378,-10.1632533267928,-48.3510437082462,-4.378478204516477,-57.176016723082924
TO,Mateiros,2748,171270,Tocantins,Palmas,Norte,-10.5444288460778,-46.412465743092,-10.1632533267928,-48.3510437082462,-4.378478204516477,-57.176016723082924
TO,Maurilândia do Tocantins,3095,171280,Tocantins,Palmas,Norte,-5.95256642121045,-47.5048799601751,-10.1632533267928,-48.3510437082462,-4.378478204516477,-57.176016723082924
TO,Miracema do Tocantins,18566,171320,Tocantins,Palmas,Norte,-9.56834607764652,-48.3879913115193,-10.1632533267928,-48.3510437082462,-4.378478204516477,-57.176016723082924
TO,Miranorte,12701,171330,Tocantins,Palmas,Norte,-9.51740473109312,-48.5926319369139,-10.1632533267928,-48.3510437082462,-4.378478204516477,-57.176016723082924
TO,Monte do Carmo,5694,171360,Tocantins,Palmas,Norte,-10.7635421946238,-48.1104200299112,-10.1632533267928,-48.3510437082462,-4.378478204516477,-57.176016723082924
TO,Monte Santo do Tocantins,2396,171370,Tocantins,Palmas,Norte,-10.005591431794,-48.9908906033935,-10.1632533267928,-48.3510437082462,-4.378478204516477,-57.176016723082924
TO,Palmeiras do Tocantins,4872,171380,Tocantins,Palmas,Norte,-6.61186233456171,-47.5586835262825,-10.1632533267928,-48.3510437082462,-4.378478204516477,-57.176016723082924
TO,Muricilândia,3367,171395,Tocantins,Palmas,Norte,-7.13851928516033,-48.6067452770067,-10.1632533267928,-48.3510437082462,-4.378478204516477,-57.176016723082924
TO,Natividade,8754,171420,Tocantins,Palmas,Norte,-11.7053573825042,-47.7272575338232,-10.1632533267928,-48.3510437082462,-4.378478204516477,-57.176016723082924
TO,Nazaré,4521,171430,Tocantins,Palmas,Norte,-6.37255796928561,-47.6669771825263,-10.1632533267928,-48.3510437082462,-4.378478204516477,-57.176016723082924
TO,Nova Olinda,10367,171488,Tocantins,Palmas,Norte,-7.6333149106925,-48.4248067900164,-10.1632533267928,-48.3510437082462,-4.378478204516477,-57.176016723082924
TO,Nova Rosalândia,3362,171500,Tocantins,Palmas,Norte,-10.5668711393323,-48.9061807245023,-10.1632533267928,-48.3510437082462,-4.378478204516477,-57.176016723082924
TO,Novo Acordo,3969,171510,Tocantins,Palmas,Norte,-9.96848646570169,-47.6681483922167,-10.1632533267928,-48.3510437082462,-4.378478204516477,-57.176016723082924
TO,Novo Alegre,1846,171515,Tocantins,Palmas,Norte,-12.9099386744081,-46.5772973536675,-10.1632533267928,-48.3510437082462,-4.378478204516477,-57.176016723082924
TO,Novo Jardim,2230,171525,Tocantins,Palmas,Norte,-11.815875050149,-46.6307872958899,-10.1632533267928,-48.3510437082462,-4.378478204516477,-57.176016723082924
TO,Oliveira de Fátima,1164,171550,Tocantins,Palmas,Norte,-10.7083627090618,-48.9074015689032,-10.1632533267928,-48.3510437082462,-4.378478204516477,-57.176016723082924
TO,Palmeirante,4798,171570,Tocantins,Palmas,Norte,-7.85756137614505,-47.9342497089842,-10.1632533267928,-48.3510437082462,-4.378478204516477,-57.176016723082924
TO,Palmeirópolis,6975,171575,Tocantins,Palmas,Norte,-13.0398884336692,-48.4134139552316,-10.1632533267928,-48.3510437082462,-4.378478204516477,-57.176016723082924
TO,Paraíso do Tocantins,52360,171610,Tocantins,Palmas,Norte,-10.1712207549999,-48.8866300840169,-10.1632533267928,-48.3510437082462,-4.378478204516477,-57.176016723082924
TO,Paranã,10542,171620,Tocantins,Palmas,Norte,-12.6204814887183,-47.8840837284426,-10.1632533267928,-48.3510437082462,-4.378478204516477,-57.176016723082924
TO,Pau D'Arco,4043,171630,Tocantins,Palmas,Norte,-7.53999835569997,-49.3633064810091,-10.1632533267928,-48.3510437082462,-4.378478204516477,-57.176016723082924
TO,Pedro Afonso,14055,171650,Tocantins,Palmas,Norte,-8.96444959242294,-48.1775561127387,-10.1632533267928,-48.3510437082462,-4.378478204516477,-57.176016723082924
TO,Peixe,9317,171660,Tocantins,Palmas,Norte,-12.029773830853,-48.537810626336,-10.1632533267928,-48.3510437082462,-4.378478204516477,-57.176016723082924
TO,Pequizeiro,4921,171665,Tocantins,Palmas,Norte,-8.59334065444845,-48.9351798669158,-10.1632533267928,-48.3510437082462,-4.378478204516477,-57.176016723082924
TO,Colméia,8941,171670,Tocantins,Palmas,Norte,-8.72937180681859,-48.7570665856948,-10.1632533267928,-48.3510437082462,-4.378478204516477,-57.176016723082924
TO,Pindorama do Tocantins,4478,171700,Tocantins,Palmas,Norte,-11.1382025846808,-47.5756877172877,-10.1632533267928,-48.3510437082462,-4.378478204516477,-57.176016723082924
TO,Piraquê,2282,171720,Tocantins,Palmas,Norte,-6.76977703340735,-48.2937073910932,-10.1632533267928,-48.3510437082462,-4.378478204516477,-57.176016723082924
TO,Pium,7128,171750,Tocantins,Palmas,Norte,-10.4409311179305,-49.1666580115747,-10.1632533267928,-48.3510437082462,-4.378478204516477,-57.176016723082924
TO,Ponte Alta do Bom Jesus,4220,171780,Tocantins,Palmas,Norte,-12.0878129084344,-46.4695867923952,-10.1632533267928,-48.3510437082462,-4.378478204516477,-57.176016723082924
TO,Ponte Alta do Tocantins,7586,171790,Tocantins,Palmas,Norte,-10.7406728486815,-47.5411803583019,-10.1632533267928,-48.3510437082462,-4.378478204516477,-57.176016723082924
TO,Porto Alegre do Tocantins,2866,171800,Tocantins,Palmas,Norte,-11.6072590990885,-47.0474256004295,-10.1632533267928,-48.3510437082462,-4.378478204516477,-57.176016723082924
TO,Porto Nacional,64418,171820,Tocantins,Palmas,Norte,-10.708569917,-48.4121534584309,-10.1632533267928,-48.3510437082462,-4.378478204516477,-57.176016723082924
TO,Praia Norte,9044,171830,Tocantins,Palmas,Norte,-5.39671287737827,-47.8147317333423,-10.1632533267928,-48.3510437082462,-4.378478204516477,-57.176016723082924
TO,Presidente Kennedy,3047,171840,Tocantins,Palmas,Norte,-8.52996082761918,-48.504330670109,-10.1632533267928,-48.3510437082462,-4.378478204516477,-57.176016723082924
TO,Pugmil,2193,171845,Tocantins,Palmas,Norte,-10.4243071562468,-48.8942204487831,-10.1632533267928,-48.3510437082462,-4.378478204516477,-57.176016723082924
TO,Recursolândia,3421,171850,Tocantins,Palmas,Norte,-8.73536045388012,-47.2380411950208,-10.1632533267928,-48.3510437082462,-4.378478204516477,-57.176016723082924
TO,Riachinho,3960,171855,Tocantins,Palmas,Norte,-6.44221138769741,-48.141045502038,-10.1632533267928,-48.3510437082462,-4.378478204516477,-57.176016723082924
TO,Rio da Conceição,1768,171865,Tocantins,Palmas,Norte,-11.404940023899,-46.8803997045722,-10.1632533267928,-48.3510437082462,-4.378478204516477,-57.176016723082924
TO,Rio dos Bois,2738,171870,Tocantins,Palmas,Norte,-9.3437422386879,-48.5330479716014,-10.1632533267928,-48.3510437082462,-4.378478204516477,-57.176016723082924
TO,Rio Sono,4841,171875,Tocantins,Palmas,Norte,-9.34778933411611,-47.8999416391395,-10.1632533267928,-48.3510437082462,-4.378478204516477,-57.176016723082924
TO,Sampaio,4215,171880,Tocantins,Palmas,Norte,-5.3492956164967,-47.8757924571994,-10.1632533267928,-48.3510437082462,-4.378478204516477,-57.176016723082924
TO,Sandolândia,3723,171884,Tocantins,Palmas,Norte,-12.5416001674833,-49.9333881543012,-10.1632533267928,-48.3510437082462,-4.378478204516477,-57.176016723082924
TO,Santa Fé do Araguaia,7216,171886,Tocantins,Palmas,Norte,-7.1499363850312,-48.6939418034376,-10.1632533267928,-48.3510437082462,-4.378478204516477,-57.176016723082924
TO,Santa Maria do Tocantins,2680,171888,Tocantins,Palmas,Norte,-8.77497644926651,-47.7452704192246,-10.1632533267928,-48.3510437082462,-4.378478204516477,-57.176016723082924
TO,Santa Rita do Tocantins,2219,171889,Tocantins,Palmas,Norte,-10.8664553694029,-48.909294007359,-10.1632533267928,-48.3510437082462,-4.378478204516477,-57.176016723082924
TO,Santa Rosa do Tocantins,4653,171890,Tocantins,Palmas,Norte,-11.4514039985494,-48.1199542217524,-10.1632533267928,-48.3510437082462,-4.378478204516477,-57.176016723082924
TO,Santa Tereza do Tocantins,2781,171900,Tocantins,Palmas,Norte,-10.2823615278187,-47.8062883215081,-10.1632533267928,-48.3510437082462,-4.378478204516477,-57.176016723082924
TO,Santa Terezinha do Tocantins,2406,172000,Tocantins,Palmas,Norte,-6.43699761844425,-47.6842853630081,-10.1632533267928,-48.3510437082462,-4.378478204516477,-57.176016723082924
TO,São Bento do Tocantins,5654,172010,Tocantins,Palmas,Norte,-6.04499925719239,-47.9193922870534,-10.1632533267928,-48.3510437082462,-4.378478204516477,-57.176016723082924
TO,São Félix do Tocantins,1783,172015,Tocantins,Palmas,Norte,-10.1732858539628,-46.6549808310123,-10.1632533267928,-48.3510437082462,-4.378478204516477,-57.176016723082924
TO,São Miguel do Tocantins,13241,172020,Tocantins,Palmas,Norte,-5.55381952879429,-47.5730023393731,-10.1632533267928,-48.3510437082462,-4.378478204516477,-57.176016723082924
TO,São Salvador do Tocantins,2385,172025,Tocantins,Palmas,Norte,-12.7474334144954,-48.2320849916811,-10.1632533267928,-48.3510437082462,-4.378478204516477,-57.176016723082924
TO,São Sebastião do Tocantins,4100,172030,Tocantins,Palmas,Norte,-5.25896145373507,-48.2038341490288,-10.1632533267928,-48.3510437082462,-4.378478204516477,-57.176016723082924
TO,São Valério,4422,172049,Tocantins,Palmas,Norte,-11.9730674594797,-48.2329484333802,-10.1632533267928,-48.3510437082462,-4.378478204516477,-57.176016723082924
TO,Silvanópolis,5108,172065,Tocantins,Palmas,Norte,-11.1498613085628,-48.1798241355321,-10.1632533267928,-48.3510437082462,-4.378478204516477,-57.176016723082924
TO,Sítio Novo do Tocantins,10830,172080,Tocantins,Palmas,Norte,-5.60472685665309,-47.6374226504604,-10.1632533267928,-48.3510437082462,-4.378478204516477,-57.176016723082924
TO,Sucupira,1577,172085,Tocantins,Palmas,Norte,-11.98622151086,-48.9111262826871,-10.1632533267928,-48.3510437082462,-4.378478204516477,-57.176016723082924
TO,Taguatinga,14011,172090,Tocantins,Palmas,Norte,-12.3961417386813,-46.4387317008831,-10.1632533267928,-48.3510437082462,-4.378478204516477,-57.176016723082924
TO,Taipas do Tocantins,2021,172093,Tocantins,Palmas,Norte,-12.1928372090542,-46.9845717959323,-10.1632533267928,-48.3510437082462,-4.378478204516477,-57.176016723082924
TO,Talismã,2456,172097,Tocantins,Palmas,Norte,-12.7875384068603,-49.0911184339334,-10.1632533267928,-48.3510437082462,-4.378478204516477,-57.176016723082924
TO,Palmas,302692,172100,Tocantins,Palmas,Norte,-10.1632533267928,-48.3510437082462,-10.1632533267928,-48.3510437082462,-4.378478204516477,-57.176016723082924
TO,Tocantínia,7459,172110,Tocantins,Palmas,Norte,-9.55814773400572,-48.3758796714267,-10.1632533267928,-48.3510437082462,-4.378478204516477,-57.176016723082924
TO,Tocantinópolis,22615,172120,Tocantins,Palmas,Norte,-6.32563437602796,-47.4274129286927,-10.1632533267928,-48.3510437082462,-4.378478204516477,-57.176016723082924
TO,Tupirama,1909,172125,Tocantins,Palmas,Norte,-8.98056954941714,-48.2066848030641,-10.1632533267928,-48.3510437082462,-4.378478204516477,-57.176016723082924
TO,Tupiratins,1874,172130,Tocantins,Palmas,Norte,-8.39552999695801,-48.1229957408688,-10.1632533267928,-48.3510437082462,-4.378478204516477,-57.176016723082924
TO,Wanderlândia,10522,172208,Tocantins,Palmas,Norte,-6.8501255166885,-47.9562677260283,-10.1632533267928,-48.3510437082462,-4.378478204516477,-57.176016723082924
TO,Xambioá,10517,172210,Tocantins,Palmas,Norte,-6.41188502017984,-48.531601072817,-10.1632533267928,-48.3510437082462,-4.378478204516477,-57.176016723082924
MA,Açailândia,106550,210005,Maranhão,São Luís,Nordeste,-4.95137700016248,-47.5066645931119,-2.53188598508339,-44.2979185642444,-7.320876208235223,-37.993955788965685
MA,Afonso Cunha,6144,210010,Maranhão,São Luís,Nordeste,-4.13501547687008,-43.3208690039685,-2.53188598508339,-44.2979185642444,-7.320876208235223,-37.993955788965685
MA,Água Doce do Maranhão,12142,210015,Maranhão,São Luís,Nordeste,-2.84027827913681,-42.1155512017213,-2.53188598508339,-44.2979185642444,-7.320876208235223,-37.993955788965685
MA,Alcântara,18467,210020,Maranhão,São Luís,Nordeste,-2.40327652507917,-44.4170125372846,-2.53188598508339,-44.2979185642444,-7.320876208235223,-37.993955788965685
MA,Aldeias Altas,23286,210030,Maranhão,São Luís,Nordeste,-4.63077949515206,-43.4687348529398,-2.53188598508339,-44.2979185642444,-7.320876208235223,-37.993955788965685
MA,Altamira do Maranhão,6447,210040,Maranhão,São Luís,Nordeste,-4.16226926685315,-45.4646758311604,-2.53188598508339,-44.2979185642444,-7.320876208235223,-37.993955788965685
MA,Alto Alegre do Maranhão,24048,210043,Maranhão,São Luís,Nordeste,-4.207227,-44.4482474945232,-2.53188598508339,-44.2979185642444,-7.320876208235223,-37.993955788965685
MA,Alto Alegre do Pindaré,25710,210047,Maranhão,São Luís,Nordeste,-3.66517037445328,-45.8420796161705,-2.53188598508339,-44.2979185642444,-7.320876208235223,-37.993955788965685
MA,Alto Parnaíba,11109,210050,Maranhão,São Luís,Nordeste,-9.10836593219112,-45.9273440133384,-2.53188598508339,-44.2979185642444,-7.320876208235223,-37.993955788965685
MA,Amapá do Maranhão,7170,210055,Maranhão,São Luís,Nordeste,-1.68092149512179,-46.0091799003875,-2.53188598508339,-44.2979185642444,-7.320876208235223,-37.993955788965685
MA,Amarante do Maranhão,37085,210060,Maranhão,São Luís,Nordeste,-5.55766200018214,-46.7506375454972,-2.53188598508339,-44.2979185642444,-7.320876208235223,-37.993955788965685
MA,Anajatuba,25322,210070,Maranhão,São Luís,Nordeste,-3.25755484212724,-44.6206700277629,-2.53188598508339,-44.2979185642444,-7.320876208235223,-37.993955788965685
MA,Anapurus,13793,210080,Maranhão,São Luís,Nordeste,-3.66703466234686,-43.1057925096893,-2.53188598508339,-44.2979185642444,-7.320876208235223,-37.993955788965685
MA,Apicum-Açu,17519,210083,Maranhão,São Luís,Nordeste,-1.53059157775486,-45.0766520734486,-2.53188598508339,-44.2979185642444,-7.320876208235223,-37.993955788965685
MA,Araguanã,11181,210087,Maranhão,São Luís,Nordeste,-2.94912562327705,-45.6687944761006,-2.53188598508339,-44.2979185642444,-7.320876208235223,-37.993955788965685
MA,Araioses,39052,210090,Maranhão,São Luís,Nordeste,-2.88925584643306,-41.8991394498654,-2.53188598508339,-44.2979185642444,-7.320876208235223,-37.993955788965685
MA,Arame,25517,210095,Maranhão,São Luís,Nordeste,-4.886081505,-46.0136362778351,-2.53188598508339,-44.2979185642444,-7.320876208235223,-37.993955788965685
MA,Arari,29472,210100,Maranhão,São Luís,Nordeste,-3.45917097011381,-44.7788346547106,-2.53188598508339,-44.2979185642444,-7.320876208235223,-37.993955788965685
MA,Axixá,11790,210110,Maranhão,São Luís,Nordeste,-2.83779683713212,-44.0545858090773,-2.53188598508339,-44.2979185642444,-7.320876208235223,-37.993955788965685
MA,Bacabal,103711,210120,Maranhão,São Luís,Nordeste,-4.23152462978051,-44.7815559640891,-2.53188598508339,-44.2979185642444,-7.320876208235223,-37.993955788965685
MA,Bacabeira,16966,210125,Maranhão,São Luís,Nordeste,-2.98582477877569,-44.3154229865671,-2.53188598508339,-44.2979185642444,-7.320876208235223,-37.993955788965685
MA,Bacuri,16290,210130,Maranhão,São Luís,Nordeste,-1.72404631847323,-45.1373489396265,-2.53188598508339,-44.2979185642444,-7.320876208235223,-37.993955788965685
MA,Bacurituba,5252,210135,Maranhão,São Luís,Nordeste,-2.71087197652061,-44.7357420061579,-2.53188598508339,-44.2979185642444,-7.320876208235223,-37.993955788965685
MA,Balsas,101767,210140,Maranhão,São Luís,Nordeste,-7.53116999024552,-46.0389926733405,-2.53188598508339,-44.2979185642444,-7.320876208235223,-37.993955788965685
MA,Barão de Grajaú,18984,210150,Maranhão,São Luís,Nordeste,-6.75895520558046,-43.0264526994269,-2.53188598508339,-44.2979185642444,-7.320876208235223,-37.993955788965685
MA,Barra do Corda,84532,210160,Maranhão,São Luís,Nordeste,-5.5083395,-45.239011016111,-2.53188598508339,-44.2979185642444,-7.320876208235223,-37.993955788965685
MA,Barreirinhas,65589,210170,Maranhão,São Luís,Nordeste,-2.75008594875811,-42.8278025132041,-2.53188598508339,-44.2979185642444,-7.320876208235223,-37.993955788965685
MA,Belágua,8460,210173,Maranhão,São Luís,Nordeste,-3.15677222752965,-43.510061642741,-2.53188598508339,-44.2979185642444,-7.320876208235223,-37.993955788965685
MA,Bela Vista do Maranhão,11750,210177,Maranhão,São Luís,Nordeste,-3.73773324990828,-45.2482458781849,-2.53188598508339,-44.2979185642444,-7.320876208235223,-37.993955788965685
MA,Benedito Leite,5469,210180,Maranhão,São Luís,Nordeste,-7.2187997953852,-44.5598567990095,-2.53188598508339,-44.2979185642444,-7.320876208235223,-37.993955788965685
MA,Bequimão,19584,210190,Maranhão,São Luís,Nordeste,-2.4620629950811,-44.7857301568673,-2.53188598508339,-44.2979185642444,-7.320876208235223,-37.993955788965685
MA,Bernardo do Mearim,5840,210193,Maranhão,São Luís,Nordeste,-4.63028749079229,-44.7643231034878,-2.53188598508339,-44.2979185642444,-7.320876208235223,-37.993955788965685
MA,Boa Vista do Gurupi,7574,210197,Maranhão,São Luís,Nordeste,-1.79329613579879,-46.2987100525274,-2.53188598508339,-44.2979185642444,-7.320876208235223,-37.993955788965685
MA,Bom Jardim,33100,210200,Maranhão,São Luís,Nordeste,-3.54416097785572,-45.6018893890511,-2.53188598508339,-44.2979185642444,-7.320876208235223,-37.993955788965685
MA,Bom Jesus das Selvas,28599,210203,Maranhão,São Luís,Nordeste,-4.48996835310692,-46.8532412231489,-2.53188598508339,-44.2979185642444,-7.320876208235223,-37.993955788965685
MA,Bom Lugar,12212,210207,Maranhão,São Luís,Nordeste,-4.37550960146424,-45.0311078563238,-2.53188598508339,-44.2979185642444,-7.320876208235223,-37.993955788965685
MA,Brejo,34120,210210,Maranhão,São Luís,Nordeste,-3.679178,-42.7508478268196,-2.53188598508339,-44.2979185642444,-7.320876208235223,-37.993955788965685
MA,Brejo de Areia,9218,210215,Maranhão,São Luís,Nordeste,-4.33062989749501,-45.5820952717813,-2.53188598508339,-44.2979185642444,-7.320876208235223,-37.993955788965685
MA,Buriti,29685,210220,Maranhão,São Luís,Nordeste,-3.9455715,-42.9251061777803,-2.53188598508339,-44.2979185642444,-7.320876208235223,-37.993955788965685
MA,Buriti Bravo,22455,210230,Maranhão,São Luís,Nordeste,-5.83528813214674,-43.8356215415106,-2.53188598508339,-44.2979185642444,-7.320876208235223,-37.993955788965685
MA,Buriticupu,55499,210232,Maranhão,São Luís,Nordeste,-4.32594772630155,-46.451495319051,-2.53188598508339,-44.2979185642444,-7.320876208235223,-37.993955788965685
MA,Buritirana,12918,210235,Maranhão,São Luís,Nordeste,-5.58891514171156,-47.0172250932177,-2.53188598508339,-44.2979185642444,-7.320876208235223,-37.993955788965685
MA,Cachoeira Grande,9732,210237,Maranhão,São Luís,Nordeste,-2.93192103905761,-44.0596850157832,-2.53188598508339,-44.2979185642444,-7.320876208235223,-37.993955788965685
MA,Cajapió,10121,210240,Maranhão,São Luís,Nordeste,-2.88288220315752,-44.6733771645862,-2.53188598508339,-44.2979185642444,-7.320876208235223,-37.993955788965685
MA,Cajari,16412,210250,Maranhão,São Luís,Nordeste,-3.32386883091692,-45.0079653349663,-2.53188598508339,-44.2979185642444,-7.320876208235223,-37.993955788965685
MA,Campestre do Maranhão,12301,210255,Maranhão,São Luís,Nordeste,-6.16471664583519,-47.3676328633342,-2.53188598508339,-44.2979185642444,-7.320876208235223,-37.993955788965685
MA,Cândido Mendes,19932,210260,Maranhão,São Luís,Nordeste,-1.453889108528,-45.7372683655917,-2.53188598508339,-44.2979185642444,-7.320876208235223,-37.993955788965685
MA,Cantanhede,24303,210270,Maranhão,São Luís,Nordeste,-3.62836431187274,-44.381816135839,-2.53188598508339,-44.2979185642444,-7.320876208235223,-37.993955788965685
MA,Capinzal do Norte,11374,210275,Maranhão,São Luís,Nordeste,-4.7212453887722,-44.3304362519955,-2.53188598508339,-44.2979185642444,-7.320876208235223,-37.993955788965685
MA,Carolina,24062,210280,Maranhão,São Luís,Nordeste,-7.33078300523913,-47.4700918028279,-2.53188598508339,-44.2979185642444,-7.320876208235223,-37.993955788965685
MA,Carutapera,24238,210290,Maranhão,São Luís,Nordeste,-1.200602,-46.023150834605,-2.53188598508339,-44.2979185642444,-7.320876208235223,-37.993955788965685
MA,Caxias,156973,210300,Maranhão,São Luís,Nordeste,-4.86167499015957,-43.3585394285192,-2.53188598508339,-44.2979185642444,-7.320876208235223,-37.993955788965685
MA,Cedral,10208,210310,Maranhão,São Luís,Nordeste,-1.99791592557159,-44.5307895278055,-2.53188598508339,-44.2979185642444,-7.320876208235223,-37.993955788965685
MA,Central do Maranhão,7094,210312,Maranhão,São Luís,Nordeste,-2.19131390761779,-44.8318437024986,-2.53188598508339,-44.2979185642444,-7.320876208235223,-37.993955788965685
MA,Centro do Guilherme,12342,210315,Maranhão,São Luís,Nordeste,-2.4569850818082,-46.0399601131872,-2.53188598508339,-44.2979185642444,-7.320876208235223,-37.993955788965685
MA,Centro Novo do Maranhão,16267,210317,Maranhão,São Luís,Nordeste,-2.14429169855839,-46.1284089549781,-2.53188598508339,-44.2979185642444,-7.320876208235223,-37.993955788965685
MA,Chapadinha,81386,210320,Maranhão,São Luís,Nordeste,-3.74002452,-43.361120781752,-2.53188598508339,-44.2979185642444,-7.320876208235223,-37.993955788965685
MA,Cidelândia,12878,210325,Maranhão,São Luís,Nordeste,-5.17742104721159,-47.7842327756716,-2.53188598508339,-44.2979185642444,-7.320876208235223,-37.993955788965685
MA,Codó,114275,210330,Maranhão,São Luís,Nordeste,-4.45133750014621,-43.8860802350324,-2.53188598508339,-44.2979185642444,-7.320876208235223,-37.993955788965685
MA,Coelho Neto,41658,210340,Maranhão,São Luís,Nordeste,-4.25473750013981,-43.0140136155495,-2.53188598508339,-44.2979185642444,-7.320876208235223,-37.993955788965685
MA,Colinas,40316,210350,Maranhão,São Luís,Nordeste,-6.02736552019732,-44.2497802305352,-2.53188598508339,-44.2979185642444,-7.320876208235223,-37.993955788965685
MA,Conceição do Lago-Açu,14915,210355,Maranhão,São Luís,Nordeste,-3.84111845785575,-44.9030159051796,-2.53188598508339,-44.2979185642444,-7.320876208235223,-37.993955788965685
MA,Coroatá,59566,210360,Maranhão,São Luís,Nordeste,-4.128976,-44.1255992014644,-2.53188598508339,-44.2979185642444,-7.320876208235223,-37.993955788965685
MA,Cururupu,31558,210370,Maranhão,São Luís,Nordeste,-1.8255207812193,-44.8677616169761,-2.53188598508339,-44.2979185642444,-7.320876208235223,-37.993955788965685
MA,Davinópolis,14404,210375,Maranhão,São Luís,Nordeste,-5.53445621610635,-47.4049963875281,-2.53188598508339,-44.2979185642444,-7.320876208235223,-37.993955788965685
MA,Dom Pedro,23053,210380,Maranhão,São Luís,Nordeste,-5.03844763516531,-44.4400099109689,-2.53188598508339,-44.2979185642444,-7.320876208235223,-37.993955788965685
MA,Duque Bacelar,10223,210390,Maranhão,São Luís,Nordeste,-4.14781909711357,-42.9441802036073,-2.53188598508339,-44.2979185642444,-7.320876208235223,-37.993955788965685
MA,Esperantinópolis,18311,210400,Maranhão,São Luís,Nordeste,-4.87030089747643,-44.8860686990188,-2.53188598508339,-44.2979185642444,-7.320876208235223,-37.993955788965685
MA,Estreito,33294,210405,Maranhão,São Luís,Nordeste,-6.56808498021472,-47.4478829861377,-2.53188598508339,-44.2979185642444,-7.320876208235223,-37.993955788965685
MA,Feira Nova do Maranhão,8048,210407,Maranhão,São Luís,Nordeste,-6.96313554062729,-46.6873552159638,-2.53188598508339,-44.2979185642444,-7.320876208235223,-37.993955788965685
MA,Fernando Falcão,10873,210408,Maranhão,São Luís,Nordeste,-6.154978462916,-44.9107074022131,-2.53188598508339,-44.2979185642444,-7.320876208235223,-37.993955788965685
MA,Formosa da Serra Negra,17719,210409,Maranhão,São Luís,Nordeste,-6.43530410561392,-46.1863570068861,-2.53188598508339,-44.2979185642444,-7.320876208235223,-37.993955788965685
MA,Fortaleza dos Nogueiras,12640,210410,Maranhão,São Luís,Nordeste,-6.9659260874923,-46.1855575419836,-2.53188598508339,-44.2979185642444,-7.320876208235223,-37.993955788965685
MA,Fortuna,16976,210420,Maranhão,São Luís,Nordeste,-5.73622413247702,-44.1606284272259,-2.53188598508339,-44.2979185642444,-7.320876208235223,-37.993955788965685
MA,Godofredo Viana,10186,210430,Maranhão,São Luís,Nordeste,-1.40980018673278,-45.7717548080523,-2.53188598508339,-44.2979185642444,-7.320876208235223,-37.993955788965685
MA,Gonçalves Dias,17206,210440,Maranhão,São Luís,Nordeste,-5.14395556946104,-44.3059065359375,-2.53188598508339,-44.2979185642444,-7.320876208235223,-37.993955788965685
MA,Governador Archer,10231,210450,Maranhão,São Luís,Nordeste,-5.02538782392684,-44.2757565261253,-2.53188598508339,-44.2979185642444,-7.320876208235223,-37.993955788965685
MA,Governador Edison Lobão,18411,210455,Maranhão,São Luís,Nordeste,-5.74741173851254,-47.3689358390373,-2.53188598508339,-44.2979185642444,-7.320876208235223,-37.993955788965685
MA,Governador Eugênio Barros,13930,210460,Maranhão,São Luís,Nordeste,-5.32249100152954,-44.2469626460204,-2.53188598508339,-44.2979185642444,-7.320876208235223,-37.993955788965685
MA,Governador Luiz Rocha,7063,210462,Maranhão,São Luís,Nordeste,-5.47286468491781,-44.0708873355169,-2.53188598508339,-44.2979185642444,-7.320876208235223,-37.993955788965685
MA,Governador Newton Bello,10713,210465,Maranhão,São Luís,Nordeste,-3.42970471990357,-45.6745017970092,-2.53188598508339,-44.2979185642444,-7.320876208235223,-37.993955788965685
MA,Governador Nunes Freire,23128,210467,Maranhão,São Luís,Nordeste,-2.13496236,-45.8814811327942,-2.53188598508339,-44.2979185642444,-7.320876208235223,-37.993955788965685
MA,Graça Aranha,6023,210470,Maranhão,São Luís,Nordeste,-5.40482121305463,-44.33579125992,-2.53188598508339,-44.2979185642444,-7.320876208235223,-37.993955788965685
MA,Grajaú,73872,210480,Maranhão,São Luís,Nordeste,-5.81854843133104,-46.1423956359934,-2.53188598508339,-44.2979185642444,-7.320876208235223,-37.993955788965685
MA,Guimarães,10290,210490,Maranhão,São Luís,Nordeste,-2.13507715838452,-44.5977464563371,-2.53188598508339,-44.2979185642444,-7.320876208235223,-37.993955788965685
MA,Humberto de Campos,25680,210500,Maranhão,São Luís,Nordeste,-2.59122397226084,-43.4650921443146,-2.53188598508339,-44.2979185642444,-7.320876208235223,-37.993955788965685
MA,Icatu,24794,210510,Maranhão,São Luís,Nordeste,-2.77482786309925,-44.06584846864,-2.53188598508339,-44.2979185642444,-7.320876208235223,-37.993955788965685
MA,Igarapé do Meio,13974,210515,Maranhão,São Luís,Nordeste,-3.63670852186543,-45.1833277021706,-2.53188598508339,-44.2979185642444,-7.320876208235223,-37.993955788965685
MA,Igarapé Grande,10231,210520,Maranhão,São Luís,Nordeste,-4.66085380623745,-44.8674033458603,-2.53188598508339,-44.2979185642444,-7.320876208235223,-37.993955788965685
MA,Imperatriz,273110,210530,Maranhão,São Luís,Nordeste,-5.52652402518114,-47.4798108057682,-2.53188598508339,-44.2979185642444,-7.320876208235223,-37.993955788965685
MA,Itaipava do Grajaú,13828,210535,Maranhão,São Luís,Nordeste,-5.1445822617698,-45.792682503469,-2.53188598508339,-44.2979185642444,-7.320876208235223,-37.993955788965685
MA,Itapecuru Mirim,60440,210540,Maranhão,São Luís,Nordeste,-3.39904548011184,-44.354263390434,-2.53188598508339,-44.2979185642444,-7.320876208235223,-37.993955788965685
MA,Itinga do Maranhão,22513,210542,Maranhão,São Luís,Nordeste,-4.45500399844588,-47.5279099637574,-2.53188598508339,-44.2979185642444,-7.320876208235223,-37.993955788965685
MA,Jatobá,7471,210545,Maranhão,São Luís,Nordeste,-5.81966693677504,-44.2199147698158,-2.53188598508339,-44.2979185642444,-7.320876208235223,-37.993955788965685
MA,Jenipapo dos Vieiras,17076,210547,Maranhão,São Luís,Nordeste,-5.36942492643339,-45.6333791074203,-2.53188598508339,-44.2979185642444,-7.320876208235223,-37.993955788965685
MA,João Lisboa,24709,210550,Maranhão,São Luís,Nordeste,-5.45366294155917,-47.4050361497684,-2.53188598508339,-44.2979185642444,-7.320876208235223,-37.993955788965685
MA,Joselândia,14924,210560,Maranhão,São Luís,Nordeste,-4.97269332894745,-44.6991525645005,-2.53188598508339,-44.2979185642444,-7.320876208235223,-37.993955788965685
MA,Junco do Maranhão,5146,210565,Maranhão,São Luís,Nordeste,-1.87460959750276,-46.0707260732137,-2.53188598508339,-44.2979185642444,-7.320876208235223,-37.993955788965685
MA,Lago da Pedra,44403,210570,Maranhão,São Luís,Nordeste,-4.564744515,-45.1258913559145,-2.53188598508339,-44.2979185642444,-7.320876208235223,-37.993955788965685
MA,Lago do Junco,9506,210580,Maranhão,São Luís,Nordeste,-4.60764321768366,-45.0513443921165,-2.53188598508339,-44.2979185642444,-7.320876208235223,-37.993955788965685
MA,Lago Verde,14769,210590,Maranhão,São Luís,Nordeste,-4.03871129527666,-44.9376352319942,-2.53188598508339,-44.2979185642444,-7.320876208235223,-37.993955788965685
MA,Lagoa do Mato,10572,210592,Maranhão,São Luís,Nordeste,-6.04527729657082,-43.5275591165627,-2.53188598508339,-44.2979185642444,-7.320876208235223,-37.993955788965685
MA,Lago dos Rodrigues,8758,210594,Maranhão,São Luís,Nordeste,-4.61237577693148,-44.9764423255877,-2.53188598508339,-44.2979185642444,-7.320876208235223,-37.993955788965685
MA,Lagoa Grande do Maranhão,11411,210596,Maranhão,São Luís,Nordeste,-4.99312373713713,-45.3906142793613,-2.53188598508339,-44.2979185642444,-7.320876208235223,-37.993955788965685
MA,Lajeado Novo,7057,210598,Maranhão,São Luís,Nordeste,-6.19160922666686,-47.0324475171004,-2.53188598508339,-44.2979185642444,-7.320876208235223,-37.993955788965685
MA,Lima Campos,11297,210600,Maranhão,São Luís,Nordeste,-4.51704598721753,-44.4693403292236,-2.53188598508339,-44.2979185642444,-7.320876208235223,-37.993955788965685
MA,Loreto,11597,210610,Maranhão,São Luís,Nordeste,-7.09445416538222,-45.1392416375273,-2.53188598508339,-44.2979185642444,-7.320876208235223,-37.993955788965685
MA,Luís Domingues,7161,210620,Maranhão,São Luís,Nordeste,-1.32546024435309,-45.8953319920784,-2.53188598508339,-44.2979185642444,-7.320876208235223,-37.993955788965685
MA,Magalhães de Almeida,13807,210630,Maranhão,São Luís,Nordeste,-3.3966676742208,-42.2015066913751,-2.53188598508339,-44.2979185642444,-7.320876208235223,-37.993955788965685
MA,Maracaçumé,21149,210632,Maranhão,São Luís,Nordeste,-2.05616454951514,-45.9586390371679,-2.53188598508339,-44.2979185642444,-7.320876208235223,-37.993955788965685
MA,Marajá do Sena,7027,210635,Maranhão,São Luís,Nordeste,-4.62031332412411,-45.4572376525781,-2.53188598508339,-44.2979185642444,-7.320876208235223,-37.993955788965685
MA,Maranhãozinho,13761,210637,Maranhão,São Luís,Nordeste,-2.235616992076,-45.8556114548668,-2.53188598508339,-44.2979185642444,-7.320876208235223,-37.993955788965685
MA,Mata Roma,17090,210640,Maranhão,São Luís,Nordeste,-3.61904550989372,-43.1203894235718,-2.53188598508339,-44.2979185642444,-7.320876208235223,-37.993955788965685
MA,Matinha,22034,210650,Maranhão,São Luís,Nordeste,-3.09840003,-45.0364289401062,-2.53188598508339,-44.2979185642444,-7.320876208235223,-37.993955788965685
MA,Matões,32174,210660,Maranhão,São Luís,Nordeste,-5.52246501943405,-43.201208282913,-2.53188598508339,-44.2979185642444,-7.320876208235223,-37.993955788965685
MA,Matões do Norte,17432,210663,Maranhão,São Luís,Nordeste,-3.62751878021672,-44.5502445069402,-2.53188598508339,-44.2979185642444,-7.320876208235223,-37.993955788965685
MA,Milagres do Maranhão,8818,210667,Maranhão,São Luís,Nordeste,-3.58220664139805,-42.6107528325103,-2.53188598508339,-44.2979185642444,-7.320876208235223,-37.993955788965685
MA,Mirador,21030,210670,Maranhão,São Luís,Nordeste,-6.37756569538775,-44.3626097938789,-2.53188598508339,-44.2979185642444,-7.320876208235223,-37.993955788965685
MA,Miranda do Norte,23864,210675,Maranhão,São Luís,Nordeste,-3.56264477442983,-44.5842756917321,-2.53188598508339,-44.2979185642444,-7.320876208235223,-37.993955788965685
MA,Mirinzal,13978,210680,Maranhão,São Luís,Nordeste,-2.06422419159107,-44.7857559864783,-2.53188598508339,-44.2979185642444,-7.320876208235223,-37.993955788965685
MA,Monção,27751,210690,Maranhão,São Luís,Nordeste,-3.49393248,-45.2475846706441,-2.53188598508339,-44.2979185642444,-7.320876208235223,-37.993955788965685
MA,Montes Altos,9106,210700,Maranhão,São Luís,Nordeste,-5.82856250416417,-47.0704395080146,-2.53188598508339,-44.2979185642444,-7.320876208235223,-37.993955788965685
MA,Morros,18554,210710,Maranhão,São Luís,Nordeste,-2.86147895308791,-44.0445445431756,-2.53188598508339,-44.2979185642444,-7.320876208235223,-37.993955788965685
MA,Nina Rodrigues,14176,210720,Maranhão,São Luís,Nordeste,-3.46246428944702,-43.9044847603497,-2.53188598508339,-44.2979185642444,-7.320876208235223,-37.993955788965685
MA,Nova Colinas,5021,210725,Maranhão,São Luís,Nordeste,-7.12056600356251,-46.2593252229153,-2.53188598508339,-44.2979185642444,-7.320876208235223,-37.993955788965685
MA,Nova Iorque,4320,210730,Maranhão,São Luís,Nordeste,-6.73320330579158,-44.0486267271013,-2.53188598508339,-44.2979185642444,-7.320876208235223,-37.993955788965685
MA,Nova Olinda do Maranhão,14314,210735,Maranhão,São Luís,Nordeste,-2.79988654406012,-45.7045360408348,-2.53188598508339,-44.2979185642444,-7.320876208235223,-37.993955788965685
MA,Olho d'Água das Cunhãs,17919,210740,Maranhão,São Luís,Nordeste,-4.13727592980541,-45.1195796205,-2.53188598508339,-44.2979185642444,-7.320876208235223,-37.993955788965685
MA,Olinda Nova do Maranhão,13577,210745,Maranhão,São Luís,Nordeste,-2.99747761540954,-45.0032353744727,-2.53188598508339,-44.2979185642444,-7.320876208235223,-37.993955788965685
MA,Paço do Lumiar,145643,210750,Maranhão,São Luís,Nordeste,-2.528063,-44.0986923548404,-2.53188598508339,-44.2979185642444,-7.320876208235223,-37.993955788965685
MA,Palmeirândia,21059,210760,Maranhão,São Luís,Nordeste,-2.64777427826389,-44.9044638923101,-2.53188598508339,-44.2979185642444,-7.320876208235223,-37.993955788965685
MA,Paraibano,18274,210770,Maranhão,São Luís,Nordeste,-6.43182541413892,-43.9857620488226,-2.53188598508339,-44.2979185642444,-7.320876208235223,-37.993955788965685
MA,Parnarama,31250,210780,Maranhão,São Luís,Nordeste,-5.6844671764059,-43.0904013534701,-2.53188598508339,-44.2979185642444,-7.320876208235223,-37.993955788965685
MA,Passagem Franca,17220,210790,Maranhão,São Luís,Nordeste,-6.17399442555871,-43.781745225862,-2.53188598508339,-44.2979185642444,-7.320876208235223,-37.993955788965685
MA,Pastos Bons,18802,210800,Maranhão,São Luís,Nordeste,-6.60402773206398,-44.0886025133719,-2.53188598508339,-44.2979185642444,-7.320876208235223,-37.993955788965685
MA,Paulino Neves,17056,210805,Maranhão,São Luís,Nordeste,-2.71820598982708,-42.5454239809373,-2.53188598508339,-44.2979185642444,-7.320876208235223,-37.993955788965685
MA,Paulo Ramos,20341,210810,Maranhão,São Luís,Nordeste,-4.44795676593636,-45.2399800047299,-2.53188598508339,-44.2979185642444,-7.320876208235223,-37.993955788965685
MA,Pedreiras,37050,210820,Maranhão,São Luís,Nordeste,-4.56935068809905,-44.6037348763271,-2.53188598508339,-44.2979185642444,-7.320876208235223,-37.993955788965685
MA,Pedro do Rosário,24320,210825,Maranhão,São Luís,Nordeste,-2.96811467267822,-45.3464537341415,-2.53188598508339,-44.2979185642444,-7.320876208235223,-37.993955788965685
MA,Penalva,32511,210830,Maranhão,São Luís,Nordeste,-3.29323331776922,-45.1764616887688,-2.53188598508339,-44.2979185642444,-7.320876208235223,-37.993955788965685
MA,Peri Mirim,11108,210840,Maranhão,São Luís,Nordeste,-2.57305464850608,-44.8502907000589,-2.53188598508339,-44.2979185642444,-7.320876208235223,-37.993955788965685
MA,Peritoró,20479,210845,Maranhão,São Luís,Nordeste,-4.37022511765711,-44.3258535239149,-2.53188598508339,-44.2979185642444,-7.320876208235223,-37.993955788965685
MA,Pindaré-Mirim,31429,210850,Maranhão,São Luís,Nordeste,-3.60550057491389,-45.3468679178433,-2.53188598508339,-44.2979185642444,-7.320876208235223,-37.993955788965685
MA,Pinheiro,84621,210860,Maranhão,São Luís,Nordeste,-2.5227405,-45.0839266012937,-2.53188598508339,-44.2979185642444,-7.320876208235223,-37.993955788965685
MA,Pio XII,21886,210870,Maranhão,São Luís,Nordeste,-3.88758753012782,-45.169960388665,-2.53188598508339,-44.2979185642444,-7.320876208235223,-37.993955788965685
MA,Pirapemas,17714,210880,Maranhão,São Luís,Nordeste,-3.72532906611683,-44.2282808838415,-2.53188598508339,-44.2979185642444,-7.320876208235223,-37.993955788965685
MA,Poção de Pedras,17161,210890,Maranhão,São Luís,Nordeste,-4.75002521124495,-44.9515514003151,-2.53188598508339,-44.2979185642444,-7.320876208235223,-37.993955788965685
MA,Porto Franco,23903,210900,Maranhão,São Luís,Nordeste,-6.35418186391414,-47.3821649019193,-2.53188598508339,-44.2979185642444,-7.320876208235223,-37.993955788965685
MA,Porto Rico do Maranhão,5954,210905,Maranhão,São Luís,Nordeste,-1.85722321484413,-44.5837478895568,-2.53188598508339,-44.2979185642444,-7.320876208235223,-37.993955788965685
MA,Presidente Dutra,45155,210910,Maranhão,São Luís,Nordeste,-5.28237425775883,-44.4929188624246,-2.53188598508339,-44.2979185642444,-7.320876208235223,-37.993955788965685
MA,Presidente Juscelino,11356,210920,Maranhão,São Luís,Nordeste,-2.92822924614923,-44.0767794214185,-2.53188598508339,-44.2979185642444,-7.320876208235223,-37.993955788965685
MA,Presidente Médici,4696,210923,Maranhão,São Luís,Nordeste,-2.38366404653914,-45.8207086475539,-2.53188598508339,-44.2979185642444,-7.320876208235223,-37.993955788965685
MA,Presidente Sarney,17511,210927,Maranhão,São Luís,Nordeste,-2.59553055990599,-45.3713022606449,-2.53188598508339,-44.2979185642444,-7.320876208235223,-37.993955788965685
MA,Presidente Vargas,10549,210930,Maranhão,São Luís,Nordeste,-3.40201152220656,-44.0334018673342,-2.53188598508339,-44.2979185642444,-7.320876208235223,-37.993955788965685
MA,Primeira Cruz,13614,210940,Maranhão,São Luís,Nordeste,-2.51058317196358,-43.4424433046987,-2.53188598508339,-44.2979185642444,-7.320876208235223,-37.993955788965685
MA,Raposa,30839,210945,Maranhão,São Luís,Nordeste,-2.41507490262868,-44.1025161642031,-2.53188598508339,-44.2979185642444,-7.320876208235223,-37.993955788965685
MA,Riachão,22145,210950,Maranhão,São Luís,Nordeste,-7.36456500024021,-46.6233501429074,-2.53188598508339,-44.2979185642444,-7.320876208235223,-37.993955788965685
MA,Ribamar Fiquene,7420,210955,Maranhão,São Luís,Nordeste,-5.93382285881857,-47.3834777870799,-2.53188598508339,-44.2979185642444,-7.320876208235223,-37.993955788965685
MA,Rosário,38475,210960,Maranhão,São Luís,Nordeste,-2.941543035,-44.2475185952615,-2.53188598508339,-44.2979185642444,-7.320876208235223,-37.993955788965685
MA,Sambaíba,5568,210970,Maranhão,São Luís,Nordeste,-7.13835089749796,-45.3442031980139,-2.53188598508339,-44.2979185642444,-7.320876208235223,-37.993955788965685
MA,Santa Filomena do Maranhão,6697,210975,Maranhão,São Luís,Nordeste,-5.4997668067221,-44.5637140401312,-2.53188598508339,-44.2979185642444,-7.320876208235223,-37.993955788965685
MA,Santa Helena,41561,210980,Maranhão,São Luís,Nordeste,-2.23453250892676,-45.3051611932379,-2.53188598508339,-44.2979185642444,-7.320876208235223,-37.993955788965685
MA,Santa Inês,85014,210990,Maranhão,São Luís,Nordeste,-3.65857452,-45.3782724523024,-2.53188598508339,-44.2979185642444,-7.320876208235223,-37.993955788965685
MA,Santa Luzia,57635,211000,Maranhão,São Luís,Nordeste,-3.968391465,-45.6650117249372,-2.53188598508339,-44.2979185642444,-7.320876208235223,-37.993955788965685
MA,Santa Luzia do Paruá,24307,211003,Maranhão,São Luís,Nordeste,-2.54616147481491,-45.7764615615901,-2.53188598508339,-44.2979185642444,-7.320876208235223,-37.993955788965685
MA,Santa Quitéria do Maranhão,23957,211010,Maranhão,São Luís,Nordeste,-3.49848499511509,-42.5628730097352,-2.53188598508339,-44.2979185642444,-7.320876208235223,-37.993955788965685
MA,Santa Rita,37035,211020,Maranhão,São Luís,Nordeste,-3.13411676567102,-44.3199480818757,-2.53188598508339,-44.2979185642444,-7.320876208235223,-37.993955788965685
MA,Santana do Maranhão,10567,211023,Maranhão,São Luís,Nordeste,-3.11306834278169,-42.4007677571893,-2.53188598508339,-44.2979185642444,-7.320876208235223,-37.993955788965685
MA,Santo Amaro do Maranhão,13949,211027,Maranhão,São Luís,Nordeste,-2.5027211989687,-43.2552849422448,-2.53188598508339,-44.2979185642444,-7.320876208235223,-37.993955788965685
MA,Santo Antônio dos Lopes,14304,211030,Maranhão,São Luís,Nordeste,-4.87381957559703,-44.3614474338019,-2.53188598508339,-44.2979185642444,-7.320876208235223,-37.993955788965685
MA,São Benedito do Rio Preto,18364,211040,Maranhão,São Luís,Nordeste,-3.33276600373026,-43.5299918701629,-2.53188598508339,-44.2979185642444,-7.320876208235223,-37.993955788965685
MA,São Bento,46395,211050,Maranhão,São Luís,Nordeste,-2.6970075,-44.8283451799242,-2.53188598508339,-44.2979185642444,-7.320876208235223,-37.993955788965685
MA,São Bernardo,26943,211060,Maranhão,São Luís,Nordeste,-3.36543651011074,-42.4230096609141,-2.53188598508339,-44.2979185642444,-7.320876208235223,-37.993955788965685
MA,São Domingos do Azeitão,7992,211065,Maranhão,São Luís,Nordeste,-6.80442500975138,-44.6504239102536,-2.53188598508339,-44.2979185642444,-7.320876208235223,-37.993955788965685
MA,São Domingos do Maranhão,34034,211070,Maranhão,São Luís,Nordeste,-5.5656420001824,-44.3928792568666,-2.53188598508339,-44.2979185642444,-7.320876208235223,-37.993955788965685
MA,São Félix de Balsas,4402,211080,Maranhão,São Luís,Nordeste,-7.08468515424976,-44.8114476614751,-2.53188598508339,-44.2979185642444,-7.320876208235223,-37.993955788965685
