UF,MUNICIPIO,POPULACAO,CD_IBGE,ESTADO,CAPITAL,REGIAO,LATITUDE,LONGITUDE,UF_LATITUDE,UF_LONGITUDE,REGIAO_LATITUDE,REGIAO_LONGITUDE
RO,Alta Floresta D'Oeste,21558,110001,Rondônia,Porto Velho,Norte,-11.92,-61.99,-8.76,-63.9,-4.371428571428572,-57.182857142857145
RO,Ariquemes,100896,110002,Rondônia,Porto Velho,Norte,-9.91,-63.04,-8.76,-63.9,-4.371428571428572,-57.182857142857145
RO,Cabixi,5107,110003,Rondônia,Porto Velho,Norte,-13.49,-60.54,-8.76,-63.9,-4.371428571428572,-57.182857142857145
RO,Cacoal,92202,110004,Rondônia,Porto Velho,Norte,-11.43,-61.44,-8.76,-63.9,-4.371428571428572,-57.182857142857145
RO,Cerejeiras,15237,110005,Rondônia,Porto Velho,Norte,-13.18,-60.81,-8.76,-63.9,-4.371428571428572,-57.182857142857145
RO,Colorado do Oeste,15747,110006,Rondônia,Porto Velho,Norte,-13.11,-60.54,-8.76,-63.9,-4.371428571428572,-57.182857142857145
RO,Corumbiara,7503,110007,Rondônia,Porto Velho,Norte,-12.96,-60.88,-8.76,-63.9,-4.371428571428572,-57.182857142857145
RO,Costa Marques,12633,110008,Rondônia,Porto Velho,Norte,-12.44,-64.22,-8.76,-63.9,-4.371428571428572,-57.182857142857145
RO,Espigão D'Oeste,29722,110009,Rondônia,Porto Velho,Norte,-11.52,-61.01,-8.76,-63.9,-4.371428571428572,-57.182857142857145
RO,Guajará-Mirim,39396,110010,Rondônia,Porto Velho,Norte,-10.78,-65.33,-8.76,-63.9,-4.371428571428572,-57.182857142857145
RO,Jaru,52090,110011,Rondônia,Porto Velho,Norte,-10.43,-62.46,-8.76,-63.9,-4.371428571428572,-57.182857142857145
RO,Ji-Paraná,136825,110012,Rondônia,Porto Velho,Norte,-10.88,-61.94,-8.76,-63.9,-4.371428571428572,-57.182857142857145
RO,Machadinho D'Oeste,30626,110013,Rondônia,Porto Velho,Norte,-9.44,-61.98,-8.76,-63.9,-4.371428571428572,-57.182857142857145
RO,Nova Brasilândia D'Oeste,17355,110014,Rondônia,Porto Velho,Norte,-11.72,-62.33,-8.76,-63.9,-4.371428571428572,-57.182857142857145
RO,Ouro Preto do Oeste,36753,110015,Rondônia,Porto Velho,Norte,-10.71,-62.24,-8.76,-63.9,-4.371428571428572,-57.182857142857145
RO,Pimenta Bueno,37464,110018,Rondônia,Porto Velho,Norte,-11.67,-61.19,-8.76,-63.9,-4.371428571428572,-57.182857142857145
RO,Porto Velho,461748,110020,Rondônia,Porto Velho,Norte,-8.76,-63.9,-8.76,-63.9,-4.371428571428572,-57.182857142857145
RO,Presidente Médici,19316,110025,Rondônia,Porto Velho,Norte,-11.17,-61.9,-8.76,-63.9,-4.371428571428572,-57.182857142857145
RO,Rio Crespo,3476,110026,Rondônia,Porto Velho,Norte,-9.7,-62.9,-8.76,-63.9,-4.371428571428572,-57.182857142857145
RO,Rolim de Moura,57180,110028,Rondônia,Porto Velho,Norte,-11.73,-61.77,-8.76,-63.9,-4.371428571428572,-57.182857142857145
RO,Santa Luzia D'Oeste,7394,110029,Rondônia,Porto Velho,Norte,-11.9,-61.77,-8.76,-63.9,-4.371428571428572,-57.182857142857145
RO,Vilhena,95599,110030,Rondônia,Porto Velho,Norte,-12.74,-60.14,-8.76,-63.9,-4.371428571428572,-57.182857142857145
RO,São Miguel do Guaporé,21612,110032,Rondônia,Porto Velho,Norte,-11.68,-62.68,-8.76,-63.9,-4.371428571428572,-57.182857142857145
RO,Nova Mamoré,25452,110033,Rondônia,Porto Velho,Norte,-10.41,-65.33,-8.76,-63.9,-4.371428571428572,-57.182857142857145
RO,Alvorada D'Oeste,13092,110034,Rondônia,Porto Velho,Norte,-11.4,-62.38,-8.76,-63.9,-4.371428571428572,-57.182857142857145
RO,Alto Alegre dos Parecis,13023,110037,Rondônia,Porto Velho,Norte,-12.12,-61.85,-8.76,-63.9,-4.371428571428572,-57.182857142857145
RO,Alto Paraíso,17140,110040,Rondônia,Porto Velho,Norte,-9.71,-63.32,-8.76,-63.9,-4.371428571428572,-57.182857142857145
RO,Buritis,28178,110045,Rondônia,Porto Velho,Norte,-10.21,-63.82,-8.76,-63.9,-4.371428571428572,-57.182857142857145
RO,Novo Horizonte do Oeste,7653,110050,Rondônia,Porto Velho,Norte,-11.71,-62.0,-8.76,-63.9,-4.371428571428572,-57.182857142857145
RO,Cacaulândia,4157,110060,Rondônia,Porto Velho,Norte,-10.34,-62.89,-8.76,-63.9,-4.371428571428572,-57.182857142857145
RO,Campo Novo de Rondônia,8840,110070,Rondônia,Porto Velho,Norte,-10.57,-63.62,-8.76,-63.9,-4.371428571428572,-57.182857142857145
RO,Candeias do Jamari,22564,110080,Rondônia,Porto Velho,Norte,-8.79,-63.7,-8.76,-63.9,-4.371428571428572,-57.182857142857145
RO,Castanheiras,3269,110090,Rondônia,Porto Velho,Norte,-11.42,-61.95,-8.76,-63.9,-4.371428571428572,-57.182857142857145
RO,Chupinguaia,9351,110092,Rondônia,Porto Velho,Norte,-12.55,-60.9,-8.76,-63.9,-4.371428571428572,-57.182857142857145
RO,Cujubim,14338,110094,Rondônia,Porto Velho,Norte,-9.36,-62.58,-8.76,-63.9,-4.371428571428572,-57.182857142857145
RO,Governador Jorge Teixeira,8012,110100,Rondônia,Porto Velho,Norte,-10.6,-62.73,-8.76,-63.9,-4.371428571428572,-57.182857142857145
RO,Itapuã do Oeste,9465,110110,Rondônia,Porto Velho,Norte,-9.2,-63.18,-8.76,-63.9,-4.371428571428572,-57.182857142857145
RO,Ministro Andreazza,6440,110120,Rondônia,Porto Velho,Norte,-11.19,-61.51,-8.76,-63.9,-4.371428571428572,-57.182857142857145
RO,Mirante da Serra,9200,110130,Rondônia,Porto Velho,Norte,-11.02,-62.67,-8.76,-63.9,-4.371428571428572,-57.182857142857145
RO,Monte Negro,11966,110140,Rondônia,Porto Velho,Norte,-10.24,-63.29,-8.76,-63.9,-4.371428571428572,-57.182857142857145
RO,Nova União,6194,110143,Rondônia,Porto Velho,Norte,-10.9,-62.56,-8.76,-63.9,-4.371428571428572,-57.182857142857145
RO,Parecis,3953,110145,Rondônia,Porto Velho,Norte,-12.17,-61.6,-8.76,-63.9,-4.371428571428572,-57.182857142857145
RO,Pimenteiras do Oeste,2180,110146,Rondônia,Porto Velho,Norte,-13.48,-61.04,-8.76,-63.9,-4.371428571428572,-57.182857142857145
RO,Primavera de Rondônia,3071,110147,Rondônia,Porto Velho,Norte,-11.82,-61.32,-8.76,-63.9,-4.371428571428572,-57.182857142857145
RO,São Felipe D'Oeste,5259,110148,Rondônia,Porto Velho,Norte,-11.9,-61.5,-8.76,-63.9,-4.371428571428572,-57.182857142857145
RO,São Francisco do Guaporé,16302,110149,Rondônia,Porto Velho,Norte,-12.06,-63.56,-8.76,-63.9,-4.371428571428572,-57.182857142857145
RO,Seringueiras,11183,110150,Rondônia,Porto Velho,Norte,-11.79,-63.03,-8.76,-63.9,-4.371428571428572,-57.182857142857145
RO,Teixeirópolis,4284,110155,Rondônia,Porto Velho,Norte,-10.91,-62.24,-8.76,-63.9,-4.371428571428572,-57.182857142857145
RO,Theobroma,9253,110160,Rondônia,Porto Velho,Norte,-10.24,-62.35,-8.76,-63.9,-4.371428571428572,-57.182857142857145
RO,Urupá,10828,110170,Rondônia,Porto Velho,Norte,-11.12,-62.37,-8.76,-63.9,-4.371428571428572,-57.182857142857145
RO,Vale do Anari,7806,110175,Rondônia,Porto Velho,Norte,-9.86,-62.18,-8.76,-63.9,-4.371428571428572,-57.182857142857145
RO,Vale do Paraíso,6487,110180,Rondônia,Porto Velho,Norte,-10.44,-62.13,-8.76,-63.9,-4.371428571428572,-57.182857142857145
AC,Acrelândia,12707,120001,Acre,Rio Branco,Norte,-9.82,-66.88,-9.97,-67.8,-4.371428571428572,-57.182857142857145
AC,Assis Brasil,8157,120005,Acre,Rio Branco,Norte,-10.94,-69.56,-9.97,-67.8,-4.371428571428572,-57.182857142857145
AC,Brasiléia,25786,120010,Acre,Rio Branco,Norte,-11.01,-68.74,-9.97,-67.8,-4.371428571428572,-57.182857142857145
AC,Bujari,11962,120013,Acre,Rio Branco,Norte,-9.83,-67.95,-9.97,-67.8,-4.371428571428572,-57.182857142857145
AC,Capixaba,9737,120017,Acre,Rio Branco,Norte,-10.57,-67.67,-9.97,-67.8,-4.371428571428572,-57.182857142857145
AC,Cruzeiro do Sul,94345,120020,Acre,Rio Branco,Norte,-7.63,-72.66,-9.97,-67.8,-4.371428571428572,-57.182857142857145
AC,Epitaciolândia,18697,120025,Acre,Rio Branco,Norte,-11.02,-68.74,-9.97,-67.8,-4.371428571428572,-57.182857142857145
AC,Feijó,35035,120030,Acre,Rio Branco,Norte,-8.16,-70.35,-9.97,-67.8,-4.371428571428572,-57.182857142857145
AC,Jordão,11105,120032,Acre,Rio Branco,Norte,-9.43,-71.88,-9.97,-67.8,-4.371428571428572,-57.182857142857145
AC,Mâncio Lima,19172,120033,Acre,Rio Branco,Norte,-7.61,-72.89,-9.97,-67.8,-4.371428571428572,-57.182857142857145
AC,Manoel Urbano,12246,120034,Acre,Rio Branco,Norte,-8.83,-69.26,-9.97,-67.8,-4.371428571428572,-57.182857142857145
AC,Marechal Thaumaturgo,16825,120035,Acre,Rio Branco,Norte,-8.94,-72.79,-9.97,-67.8,-4.371428571428572,-57.182857142857145
AC,Plácido de Castro,16313,120038,Acre,Rio Branco,Norte,-10.33,-67.18,-9.97,-67.8,-4.371428571428572,-57.182857142857145
AC,Porto Walter,10706,120039,Acre,Rio Branco,Norte,-8.26,-72.74,-9.97,-67.8,-4.371428571428572,-57.182857142857145
AC,Rio Branco,364368,120040,Acre,Rio Branco,Norte,-9.97,-67.8,-9.97,-67.8,-4.371428571428572,-57.182857142857145
AC,Rodrigues Alves,16072,120042,Acre,Rio Branco,Norte,-7.74,-72.64,-9.97,-67.8,-4.371428571428572,-57.182857142857145
AC,Santa Rosa do Purus,7672,120043,Acre,Rio Branco,Norte,-9.43,-70.49,-9.97,-67.8,-4.371428571428572,-57.182857142857145
AC,Senador Guiomard,21658,120045,Acre,Rio Branco,Norte,-10.15,-67.73,-9.97,-67.8,-4.371428571428572,-57.182857142857145
AC,Sena Madureira,39746,120050,Acre,Rio Branco,Norte,-9.06,-68.65,-9.97,-67.8,-4.371428571428572,-57.182857142857145
AC,Tarauacá,43072,120060,Acre,Rio Branco,Norte,-8.16,-70.76,-9.97,-67.8,-4.371428571428572,-57.182857142857145
AC,Xapuri,18181,120070,Acre,Rio Branco,Norte,-10.65,-68.5,-9.97,-67.8,-4.371428571428572,-57.182857142857145
AC,Porto Acre,16218,120080,Acre,Rio Branco,Norte,-9.58,-67.53,-9.97,-67.8,-4.371428571428572,-57.182857142857145
AM,Alvarães,15916,130002,Amazonas,Manaus,Norte,-3.22,-64.8,-3.1,-60.02,-4.371428571428572,-57.182857142857145
AM,Amaturá,10814,130006,Amazonas,Manaus,Norte,-3.36,-68.19,-3.1,-60.02,-4.371428571428572,-57.182857142857145
AM,Anamã,9927,130008,Amazonas,Manaus,Norte,-3.57,-61.4,-3.1,-60.02,-4.371428571428572,-57.182857142857145
AM,Anori,17052,130010,Amazonas,Manaus,Norte,-3.77,-61.64,-3.1,-60.02,-4.371428571428572,-57.182857142857145
AM,Apuí,21403,130014,Amazonas,Manaus,Norte,-7.19,-59.89,-3.1,-60.02,-4.371428571428572,-57.182857142857145
AM,Atalaia do Norte,15440,130020,Amazonas,Manaus,Norte,-4.37,-70.19,-3.1,-60.02,-4.371428571428572,-57.182857142857145
AM,Autazes,41672,130030,Amazonas,Manaus,Norte,-3.57,-59.13,-3.1,-60.02,-4.371428571428572,-57.182857142857145
AM,Barcelos,18399,130040,Amazonas,Manaus,Norte,-0.97,-62.92,-3.1,-60.02,-4.371428571428572,-57.182857142857145
AM,Barreirinha,30990,130050,Amazonas,Manaus,Norte,-2.79,-57.06,-3.1,-60.02,-4.371428571428572,-57.182857142857145
AM,Benjamin Constant,37436,130060,Amazonas,Manaus,Norte,-4.38,-70.03,-3.1,-60.02,-4.371428571428572,-57.182857142857145
AM,Beruri,20807,130063,Amazonas,Manaus,Norte,-3.89,-61.37,-3.1,-60.02,-4.371428571428572,-57.182857142857145
AM,Boa Vista do Ramos,24018,130068,Amazonas,Manaus,Norte,-2.97,-57.59,-3.1,-60.02,-4.371428571428572,-57.182857142857145
AM,Boca do Acre,35964,130070,Amazonas,Manaus,Norte,-8.75,-67.39,-3.1,-60.02,-4.371428571428572,-57.182857142857145
AM,Borba,33209,130080,Amazonas,Manaus,Norte,-4.38,-59.59,-3.1,-60.02,-4.371428571428572,-57.182857142857145
AM,Caapiranga,13851,130083,Amazonas,Manaus,Norte,-3.32,-61.2,-3.1,-60.02,-4.371428571428572,-57.182857142857145
AM,Canutama,17362,130090,Amazonas,Manaus,Norte,-6.53,-64.38,-3.1,-60.02,-4.371428571428572,-57.182857142857145
AM,Carauari,29176,130100,Amazonas,Manaus,Norte,-4.88,-66.89,-3.1,-60.02,-4.371428571428572,-57.182857142857145
AM,Careiro,30819,130110,Amazonas,Manaus,Norte,-3.76,-60.36,-3.1,-60.02,-4.371428571428572,-57.182857142857145
AM,Careiro da Várzea,19615,130115,Amazonas,Manaus,Norte,-3.22,-59.82,-3.1,-60.02,-4.371428571428572,-57.182857142857145
AM,Coari,71130,130120,Amazonas,Manaus,Norte,-4.08,-63.14,-3.1,-60.02,-4.371428571428572,-57.182857142857145
AM,Codajás,24071,130130,Amazonas,Manaus,Norte,-3.83,-62.05,-3.1,-60.02,-4.371428571428572,-57.182857142857145
AM,Eirunepé,33173,130140,Amazonas,Manaus,Norte,-6.65,-69.87,-3.1,-60.02,-4.371428571428572,-57.182857142857145
AM,Envira,17034,130150,Amazonas,Manaus,Norte,-7.43,-70.02,-3.1,-60.02,-4.371428571428572,-57.182857142857145
AM,Fonte Boa,27692,130160,Amazonas,Manaus,Norte,-2.51,-66.09,-3.1,-60.02,-4.371428571428572,-57.182857142857145
AM,Guajará,13809,130165,Amazonas,Manaus,Norte,-7.54,-72.58,-3.1,-60.02,-4.371428571428572,-57.182857142857145
AM,Humaitá,59504,130170,Amazonas,Manaus,Norte,-7.5,-63.02,-3.1,-60.02,-4.371428571428572,-57.182857142857145
AM,Ipixuna,24387,130180,Amazonas,Manaus,Norte,-7.05,-71.69,-3.1,-60.02,-4.371428571428572,-57.182857142857145
AM,Iranduba,59767,130185,Amazonas,Manaus,Norte,-3.28,-60.18,-3.1,-60.02,-4.371428571428572,-57.182857142857145
AM,Itacoatiara,103826,130190,Amazonas,Manaus,Norte,-3.14,-58.44,-3.1,-60.02,-4.371428571428572,-57.182857142857145
AM,Itamarati,10783,130195,Amazonas,Manaus,Norte,-6.42,-68.25,-3.1,-60.02,-4.371428571428572,-57.182857142857145
AM,Itapiranga,10183,130200,Amazonas,Manaus,Norte,-2.74,-58.02,-3.1,-60.02,-4.371428571428572,-57.182857142857145
AM,Japurá,9281,130210,Amazonas,Manaus,Norte,-1.82,-66.59,-3.1,-60.02,-4.371428571428572,-57.182857142857145
AM,Juruá,10501,130220,Amazonas,Manaus,Norte,-3.48,-66.06,-3.1,-60.02,-4.371428571428572,-57.182857142857145
AM,Jutaí,25048,130230,Amazonas,Manaus,Norte,-2.74,-66.76,-3.1,-60.02,-4.371428571428572,-57.182857142857145
AM,Lábrea,47003,130240,Amazonas,Manaus,Norte,-7.25,-64.79,-3.1,-60.02,-4.371428571428572,-57.182857142857145
AM,Manacapuru,102736,130250,Amazonas,Manaus,Norte,-3.29,-60.62,-3.1,-60.02,-4.371428571428572,-57.182857142857145
AM,Manaquiri,17333,130255,Amazonas,Manaus,Norte,-3.42,-60.45,-3.1,-60.02,-4.371428571428572,-57.182857142857145
AM,Manaus,2054731,130260,Amazonas,Manaus,Norte,-3.1,-60.02,-3.1,-60.02,-4.371428571428572,-57.182857142857145
AM,Manicoré,59225,130270,Amazonas,Manaus,Norte,-5.8,-61.29,-3.1,-60.02,-4.371428571428572,-57.182857142857145
AM,Maraã,15706,130280,Amazonas,Manaus,Norte,-1.85,-65.58,-3.1,-60.02,-4.371428571428572,-57.182857142857145
AM,Maués,61167,130290,Amazonas,Manaus,Norte,-3.38,-57.71,-3.1,-60.02,-4.371428571428572,-57.182857142857145
AM,Nhamundá,20249,130300,Amazonas,Manaus,Norte,-2.18,-56.71,-3.1,-60.02,-4.371428571428572,-57.182857142857145
AM,Nova Olinda do Norte,27088,130310,Amazonas,Manaus,Norte,-3.88,-59.09,-3.1,-60.02,-4.371428571428572,-57.182857142857145
AM,Novo Airão,15819,130320,Amazonas,Manaus,Norte,-2.62,-60.94,-3.1,-60.02,-4.371428571428572,-57.182857142857145
AM,Novo Aripuanã,24251,130330,Amazonas,Manaus,Norte,-5.12,-60.38,-3.1,-60.02,-4.371428571428572,-57.182857142857145
AM,Parintins,96251,130340,Amazonas,Manaus,Norte,-2.62,-56.73,-3.1,-60.02,-4.371428571428572,-57.182857142857145
AM,Pauini,20351,130350,Amazonas,Manaus,Norte,-7.71,-66.97,-3.1,-60.02,-4.371428571428572,-57.182857142857145
AM,Presidente Figueiredo,30762,130353,Amazonas,Manaus,Norte,-2.03,-60.02,-3.1,-60.02,-4.371428571428572,-57.182857142857145
AM,Rio Preto da Eva,24807,130356,Amazonas,Manaus,Norte,-2.69,-59.7,-3.1,-60.02,-4.371428571428572,-57.182857142857145
AM,Santa Isabel do Rio Negro,14305,130360,Amazonas,Manaus,Norte,-0.41,-65.01,-3.1,-60.02,-4.371428571428572,-57.182857142857145
AM,Santo Antônio do Içá,28233,130370,Amazonas,Manaus,Norte,-3.1,-67.94,-3.1,-60.02,-4.371428571428572,-57.182857142857145
AM,São Gabriel da Cachoeira,51921,130380,Amazonas,Manaus,Norte,-0.12,-67.08,-3.1,-60.02,-4.371428571428572,-57.182857142857145
AM,São Paulo de Olivença,32727,130390,Amazonas,Manaus,Norte,-3.37,-68.87,-3.1,-60.02,-4.371428571428572,-57.182857142857145
AM,São Sebastião do Uatumã,11697,130395,Amazonas,Manaus,Norte,-2.57,-57.87,-3.1,-60.02,-4.371428571428572,-57.182857142857145
AM,Silves,11572,130400,Amazonas,Manaus,Norte,-2.83,-58.2,-3.1,-60.02,-4.371428571428572,-57.182857142857145
AM,Tabatinga,66837,130406,Amazonas,Manaus,Norte,-4.25,-69.93,-3.1,-60.02,-4.371428571428572,-57.182857142857145
AM,Tapauá,21914,130410,Amazonas,Manaus,Norte,-5.62,-63.18,-3.1,-60.02,-4.371428571428572,-57.182857142857145
AM,Tefé,74142,130420,Amazonas,Manaus,Norte,-3.35,-64.71,-3.1,-60.02,-4.371428571428572,-57.182857142857145
AM,Tonantins,20180,130423,Amazonas,Manaus,Norte,-2.87,-67.8,-3.1,-60.02,-4.371428571428572,-57.182857142857145
AM,Uarini,14597,130426,Amazonas,Manaus,Norte,-2.99,-65.1,-3.1,-60.02,-4.371428571428572,-57.182857142857145
AM,Urucará,18582,130430,Amazonas,Manaus,Norte,-2.53,-57.75,-3.1,-60.02,-4.371428571428572,-57.182857142857145
AM,Urucurituba,24017,130440,Amazonas,Manaus,Norte,-3.13,-58.15,-3.1,-60.02,-4.371428571428572,-57.182857142857145
RR,Amajari,16994,140002,Roraima,Boa Vista,Norte,3.65,-61.37,2.81,-60.67,-4.371428571428572,-57.182857142857145
RR,Alto Alegre,23582,140005,Roraima,Boa Vista,Norte,2.98,-61.29,2.81,-60.67,-4.371428571428572,-57.182857142857145
RR,Boa Vista,408157,140010,Roraima,Boa Vista,Norte,2.81,-60.67,2.81,-60.67,-4.371428571428572,-57.182857142857145
RR,Bonfim,16169,140015,Roraima,Boa Vista,Norte,3.35,-59.83,2.81,-60.67,-4.371428571428572,-57.182857142857145
RR,Cantá,18030,140017,Roraima,Boa Vista,Norte,2.6,-60.59,2.81,-60.67,-4.371428571428572,-57.182857142857145
RR,Caracaraí,20780,140020,Roraima,Boa Vista,Norte,1.81,-61.12,2.81,-60.67,-4.371428571428572,-57.182857142857145
RR,Caroebe,10555,140023,Roraima,Boa Vista,Norte,0.88,-59.69,2.81,-60.67,-4.371428571428572,-57.182857142857145
RR,Iracema,11000,140028,Roraima,Boa Vista,Norte,2.18,-61.04,2.81,-60.67,-4.371428571428572,-57.182857142857145
RR,Mucajaí,17058,140030,Roraima,Boa Vista,Norte,2.43,-60.9,2.81,-60.67,-4.371428571428572,-57.182857142857145
RR,Normandia,15264,140040,Roraima,Boa Vista,Norte,3.88,-59.62,2.81,-60.67,-4.371428571428572,-57.182857142857145
RR,Pacaraima,19317,140045,Roraima,Boa Vista,Norte,4.43,-61.14,2.81,-60.67,-4.371428571428572,-57.182857142857145
RR,Rorainópolis,29932,140047,Roraima,Boa Vista,Norte,0.94,-60.41,2.81,-60.67,-4.371428571428572,-57.182857142857145
RR,São João da Baliza,8011,140050,Roraima,Boa Vista,Norte,0.95,-59.91,2.81,-60.67,-4.371428571428572,-57.182857142857145
RR,São Luiz,6192,140060,Roraima,Boa Vista,Norte,1.0,-60.15,2.81,-60.67,-4.371428571428572,-57.182857142857145
RR,Uiramutã,13764,140070,Roraima,Boa Vista,Norte,4.59,-60.16,2.81,-60.67,-4.371428571428572,-57.182857142857145
PA,Abaetetuba,158042,150010,Pará,Belém,Norte,-1.71,-48.88,-1.45,-48.5,-4.371428571428572,-57.182857142857145
PA,Abel Figueiredo,6119,150013,Pará,Belém,Norte,-4.95,-48.39,-1.45,-48.5,-4.371428571428572,-57.182857142857145
PA,Acará,63268,150020,Pará,Belém,Norte,-1.96,-48.19,-1.45,-48.5,-4.371428571428572,-57.182857142857145
PA,Afuá,38020,150030,Pará,Belém,Norte,-0.15,-50.38,-1.45,-48.5,-4.371428571428572,-57.182857142857145
PA,Água Azul do Norte,16672,150034,Pará,Belém,Norte,-6.79,-50.46,-1.45,-48.5,-4.371428571428572,-57.182857142857145
PA,Alenquer,86096,150040,Pará,Belém,Norte,-1.94,-54.73,-1.45,-48.5,-4.371428571428572,-57.182857142857145
PA,Almeirim,38843,150050,Pará,Belém,Norte,-1.52,-52.58,-1.45,-48.5,-4.371428571428572,-57.182857142857145
PA,Altamira,135067,150060,Pará,Belém,Norte,-3.2,-52.2,-1.45,-48.5,-4.371428571428572,-57.182857142857145
PA,Anajás,34065,150070,Pará,Belém,Norte,-0.98,-49.93,-1.45,-48.5,-4.371428571428572,-57.182857142857145
PA,Ananindeua,515745,150080,Pará,Belém,Norte,-1.36,-48.37,-1.45,-48.5,-4.371428571428572,-57.182857142857145
PA,Anapu,33566,150085,Pará,Belém,Norte,-3.47,-51.19,-1.45,-48.5,-4.371428571428572,-57.182857142857145
PA,Augusto Corrêa,43691,150090,Pará,Belém,Norte,-1.02,-46.64,-1.45,-48.5,-4.371428571428572,-57.182857142857145
PA,Aurora do Pará,32772,150095,Pará,Belém,Norte,-2.13,-47.56,-1.45,-48.5,-4.371428571428572,-57.182857142857145
PA,Aveiro,18343,150100,Pará,Belém,Norte,-3.6,-55.33,-1.45,-48.5,-4.371428571428572,-57.182857142857145
PA,Bagre,35265,150110,Pará,Belém,Norte,-1.89,-50.16,-1.45,-48.5,-4.371428571428572,-57.182857142857145
PA,Baião,51844,150120,Pará,Belém,Norte,-2.79,-49.67,-1.45,-48.5,-4.371428571428572,-57.182857142857145
PA,Bannach,3730,150125,Pará,Belém,Norte,-7.34,-50.39,-1.45,-48.5,-4.371428571428572,-57.182857142857145
PA,Barcarena,126733,150130,Pará,Belém,Norte,-1.5,-48.62,-1.45,-48.5,-4.371428571428572,-57.182857142857145
PA,Belém,1367336,150140,Pará,Belém,Norte,-1.45,-48.5,-1.45,-48.5,-4.371428571428572,-57.182857142857145
PA,Belterra,18060,150145,Pará,Belém,Norte,-2.63,-54.93,-1.45,-48.5,-4.371428571428572,-57.182857142857145
PA,Benevides,56152,150150,Pará,Belém,Norte,-1.36,-48.24,-1.45,-48.5,-4.371428571428572,-57.182857142857145
PA,Bom Jesus do Tocantins,14511,150157,Pará,Belém,Norte,-5.05,-48.6,-1.45,-48.5,-4.371428571428572,-57.182857142857145
PA,Bonito,12892,150160,Pará,Belém,Norte,-1.36,-47.3,-1.45,-48.5,-4.371428571428572,-57.182857142857145
PA,Bragança,121793,150170,Pará,Belém,Norte,-1.06,-46.77,-1.45,-48.5,-4.371428571428572,-57.182857142857145
PA,Brasil Novo,30214,150172,Pará,Belém,Norte,-3.26,-52.66,-1.45,-48.5,-4.371428571428572,-57.182857142857145
PA,Brejo Grande do Araguaia,6791,150175,Pará,Belém,Norte,-5.69,-48.41,-1.45,-48.5,-4.371428571428572,-57.182857142857145
PA,Breu Branco,40157,150178,Pará,Belém,Norte,-4.0,-49.46,-1.45,-48.5,-4.371428571428572,-57.182857142857145
PA,Breves,114628,150180,Pará,Belém,Norte,-1.68,-50.47,-1.45,-48.5,-4.371428571428572,-57.182857142857145
PA,Bujaru,27049,150190,Pará,Belém,Norte,-1.51,-48.04,-1.45,-48.5,-4.371428571428572,-57.182857142857145
PA,Cachoeira do Piriá,26510,150195,Pará,Belém,Norte,-1.67,-46.52,-1.45,-48.5,-4.371428571428572,-57.182857142857145
PA,Cachoeira do Arari,22950,150200,Pará,Belém,Norte,-1.01,-48.96,-1.45,-48.5,-4.371428571428572,-57.182857142857145
PA,Cametá,134734,150210,Pará,Belém,Norte,-2.24,-49.49,-1.45,-48.5,-4.371428571428572,-57.182857142857145
PA,Canaã dos Carajás,75433,150215,Pará,Belém,Norte,-6.49,-49.87,-1.45,-48.5,-4.371428571428572,-57.182857142857145
PA,Capanema,70321,150220,Pará,Belém,Norte,-1.19,-47.18,-1.45,-48.5,-4.371428571428572,-57.182857142857145
PA,Capitão Poço,56331,150230,Pará,Belém,Norte,-1.74,-47.06,-1.45,-48.5,-4.371428571428572,-57.182857142857145
PA,Castanhal,200003,150240,Pará,Belém,Norte,-1.29,-47.92,-1.45,-48.5,-4.371428571428572,-57.182857142857145
PA,Chaves,20630,150250,Pará,Belém,Norte,-0.15,-49.98,-1.45,-48.5,-4.371428571428572,-57.182857142857145
PA,Colares,11923,150260,Pará,Belém,Norte,-0.93,-48.28,-1.45,-48.5,-4.371428571428572,-57.182857142857145
PA,Conceição do Araguaia,44765,150270,Pará,Belém,Norte,-8.25,-49.26,-1.45,-48.5,-4.371428571428572,-57.182857142857145
PA,Concórdia do Pará,26869,150275,Pará,Belém,Norte,-1.99,-47.94,-1.45,-48.5,-4.371428571428572,-57.182857142857145
PA,Cumaru do Norte,12397,150276,Pará,Belém,Norte,-7.82,-50.77,-1.45,-48.5,-4.371428571428572,-57.182857142857145
PA,Curionópolis,19929,150277,Pará,Belém,Norte,-6.09,-49.54,-1.45,-48.5,-4.371428571428572,-57.182857142857145
PA,Curralinho,38060,150280,Pará,Belém,Norte,-1.81,-49.79,-1.45,-48.5,-4.371428571428572,-57.182857142857145
PA,Curuá,14126,150285,Pará,Belém,Norte,-1.88,-55.11,-1.45,-48.5,-4.371428571428572,-57.182857142857145
PA,Curuçá,44493,150290,Pará,Belém,Norte,-0.73,-47.85,-1.45,-48.5,-4.371428571428572,-57.182857142857145
PA,Dom Eliseu,58444,150293,Pará,Belém,Norte,-4.28,-47.5,-1.45,-48.5,-4.371428571428572,-57.182857142857145
PA,Eldorado do Carajás,30264,150295,Pará,Belém,Norte,-6.1,-49.35,-1.45,-48.5,-4.371428571428572,-57.182857142857145
PA,Faro,8728,150300,Pará,Belém,Norte,-2.17,-56.74,-1.45,-48.5,-4.371428571428572,-57.182857142857145
PA,Floresta do Araguaia,17896,150304,Pará,Belém,Norte,-7.55,-49.71,-1.45,-48.5,-4.371428571428572,-57.182857142857145
PA,Garrafão do Norte,24716,150307,Pará,Belém,Norte,-1.93,-47.05,-1.45,-48.5,-4.371428571428572,-57.182857142857145
PA,Goianésia do Pará,23806,150309,Pará,Belém,Norte,-3.84,-49.09,-1.45,-48.5,-4.371428571428572,-57.182857142857145
PA,Gurupá,31945,150310,Pará,Belém,Norte,-1.4,-51.63,-1.45,-48.5,-4.371428571428572,-57.182857142857145
PA,Igarapé-Açu,35788,150320,Pará,Belém,Norte,-1.12,-47.61,-1.45,-48.5,-4.371428571428572,-57.182857142857145
PA,Igarapé-Miri,66369,150330,Pará,Belém,Norte,-1.97,-48.95,-1.45,-48.5,-4.371428571428572,-57.182857142857145
PA,Inhangapi,10334,150340,Pará,Belém,Norte,-1.42,-47.91,-1.45,-48.5,-4.371428571428572,-57.182857142857145
PA,Ipixuna do Pará,29116,150345,Pará,Belém,Norte,-2.55,-47.49,-1.45,-48.5,-4.371428571428572,-57.182857142857145
PA,Irituia,30627,150350,Pará,Belém,Norte,-1.76,-47.43,-1.45,-48.5,-4.371428571428572,-57.182857142857145
PA,Itaituba,137170,150360,Pará,Belém,Norte,-4.27,-55.98,-1.45,-48.5,-4.371428571428572,-57.182857142857145
PA,Itupiranga,53873,150370,Pará,Belém,Norte,-5.13,-49.32,-1.45,-48.5,-4.371428571428572,-57.182857142857145
PA,Jacareacanga,24742,150375,Pará,Belém,Norte,-6.22,-57.75,-1.45,-48.5,-4.371428571428572,-57.182857142857145
PA,Jacundá,36184,150380,Pará,Belém,Norte,-4.45,-49.11,-1.45,-48.5,-4.371428571428572,-57.182857142857145
PA,Juruti,57837,150390,Pará,Belém,Norte,-2.15,-56.09,-1.45,-48.5,-4.371428571428572,-57.182857142857145
PA,Limoeiro do Ajuru,29617,150400,Pará,Belém,Norte,-1.89,-49.38,-1.45,-48.5,-4.371428571428572,-57.182857142857145
PA,Mãe do Rio,34566,150405,Pará,Belém,Norte,-2.05,-47.55,-1.45,-48.5,-4.371428571428572,-57.182857142857145
PA,Magalhães Barata,8090,150410,Pará,Belém,Norte,-0.79,-47.59,-1.45,-48.5,-4.371428571428572,-57.182857142857145
PA,Marabá,271321,150420,Pará,Belém,Norte,-5.36,-49.11,-1.45,-48.5,-4.371428571428572,-57.182857142857145
PA,Maracanã,25929,150430,Pará,Belém,Norte,-0.76,-47.45,-1.45,-48.5,-4.371428571428572,-57.182857142857145
PA,Marapanim,30867,150440,Pará,Belém,Norte,-0.71,-47.69,-1.45,-48.5,-4.371428571428572,-57.182857142857145
PA,Marituba,123890,150442,Pará,Belém,Norte,-1.35,-48.34,-1.45,-48.5,-4.371428571428572,-57.182857142857145
PA,Medicilândia,26438,150445,Pará,Belém,Norte,-3.44,-52.88,-1.45,-48.5,-4.371428571428572,-57.182857142857145
PA,Melgaço,26770,150450,Pará,Belém,Norte,-1.8,-50.71,-1.45,-48.5,-4.371428571428572,-57.182857142857145
PA,Mocajuba,27265,150460,Pará,Belém,Norte,-2.58,-49.5,-1.45,-48.5,-4.371428571428572,-57.182857142857145
PA,Moju,81364,150470,Pará,Belém,Norte,-1.88,-48.76,-1.45,-48.5,-4.371428571428572,-57.182857142857145
PA,Mojuí dos Campos,22845,150475,Pará,Belém,Norte,-2.68,-54.65,-1.45,-48.5,-4.371428571428572,-57.182857142857145
PA,Monte Alegre,59890,150480,Pará,Belém,Norte,-2.0,-54.06,-1.45,-48.5,-4.371428571428572,-57.182857142857145
PA,Muaná,60117,150490,Pará,Belém,Norte,-1.52,-49.21,-1.45,-48.5,-4.371428571428572,-57.182857142857145
PA,Nova Esperança do Piriá,21132,150495,Pará,Belém,Norte,-2.26,-46.96,-1.45,-48.5,-4.371428571428572,-57.182857142857145
PA,Nova Ipixuna,13318,150497,Pará,Belém,Norte,-4.92,-49.07,-1.45,-48.5,-4.371428571428572,-57.182857142857145
PA,Nova Timboteua,12737,150500,Pará,Belém,Norte,-1.2,-47.38,-1.45,-48.5,-4.371428571428572,-57.182857142857145
PA,Novo Progresso,33636,150503,Pará,Belém,Norte,-7.14,-55.38,-1.45,-48.5,-4.371428571428572,-57.182857142857145
PA,Novo Repartimento,60438,150506,Pará,Belém,Norte,-4.33,-49.79,-1.45,-48.5,-4.371428571428572,-57.182857142857145
PA,Óbidos,58121,150510,Pará,Belém,Norte,-1.91,-55.51,-1.45,-48.5,-4.371428571428572,-57.182857142857145
PA,Oeiras do Pará,33886,150520,Pará,Belém,Norte,-2.0,-49.85,-1.45,-48.5,-4.371428571428572,-57.182857142857145
PA,Oriximiná,76140,150530,Pará,Belém,Norte,-1.76,-55.86,-1.45,-48.5,-4.371428571428572,-57.182857142857145
PA,Ourém,17836,150540,Pará,Belém,Norte,-1.54,-47.11,-1.45,-48.5,-4.371428571428572,-57.182857142857145
PA,Ourilândia do Norte,26570,150543,Pará,Belém,Norte,-6.75,-51.08,-1.45,-48.5,-4.371428571428572,-57.182857142857145
PA,Pacajá,43527,150548,Pará,Belém,Norte,-3.83,-50.63,-1.45,-48.5,-4.371428571428572,-57.182857142857145
PA,Palestina do Pará,6872,150549,Pará,Belém,Norte,-5.74,-48.31,-1.45,-48.5,-4.371428571428572,-57.182857142857145
PA,Paragominas,104883,150550,Pará,Belém,Norte,-2.99,-47.35,-1.45,-48.5,-4.371428571428572,-57.182857142857145
PA,Parauapebas,271577,150553,Pará,Belém,Norte,-6.06,-49.9,-1.45,-48.5,-4.371428571428572,-57.182857142857145
PA,Pau D'Arco,6772,150555,Pará,Belém,Norte,-7.83,-50.04,-1.45,-48.5,-4.371428571428572,-57.182857142857145
PA,Peixe-Boi,8315,150560,Pará,Belém,Norte,-1.19,-47.31,-1.45,-48.5,-4.371428571428572,-57.182857142857145
PA,Piçarra,12794,150563,Pará,Belém,Norte,-6.43,-48.87,-1.45,-48.5,-4.371428571428572,-57.182857142857145
PA,Placas,18602,150565,Pará,Belém,Norte,-3.86,-54.22,-1.45,-48.5,-4.371428571428572,-57.182857142857145
PA,Ponta de Pedras,24913,150570,Pará,Belém,Norte,-1.38,-48.87,-1.45,-48.5,-4.371428571428572,-57.182857142857145
PA,Portel,67288,150580,Pará,Belém,Norte,-1.93,-50.82,-1.45,-48.5,-4.371428571428572,-57.182857142857145
PA,Porto de Moz,40709,150590,Pará,Belém,Norte,-1.74,-52.23,-1.45,-48.5,-4.371428571428572,-57.182857142857145
PA,Prainha,35655,150600,Pará,Belém,Norte,-1.79,-53.47,-1.45,-48.5,-4.371428571428572,-57.182857142857145
PA,Primavera,10700,150610,Pará,Belém,Norte,-0.94,-47.11,-1.45,-48.5,-4.371428571428572,-57.182857142857145
PA,Quatipuru,11534,150611,Pará,Belém,Norte,-0.9,-47.0,-1.45,-48.5,-4.371428571428572,-57.182857142857145
PA,Redenção,91227,150613,Pará,Belém,Norte,-8.02,-50.03,-1.45,-48.5,-4.371428571428572,-57.182857142857145
PA,Rio Maria,17965,150616,Pará,Belém,Norte,-7.31,-50.04,-1.45,-48.5,-4.371428571428572,-57.182857142857145
PA,Rondon do Pará,35182,150618,Pará,Belém,Norte,-4.77,-48.06,-1.45,-48.5,-4.371428571428572,-57.182857142857145
PA,Rurópolis,41975,150619,Pará,Belém,Norte,-4.09,-54.9,-1.45,-48.5,-4.371428571428572,-57.182857142857145
PA,Salinópolis,44451,150620,Pará,Belém,Norte,-0.62,-47.35,-1.45,-48.5,-4.371428571428572,-57.182857142857145
PA,Salvaterra,24701,150630,Pará,Belém,Norte,-0.75,-48.51,-1.45,-48.5,-4.371428571428572,-57.182857142857145
PA,Santa Bárbara do Pará,21089,150635,Pará,Belém,Norte,-1.22,-48.29,-1.45,-48.5,-4.371428571428572,-57.182857142857145
PA,Santa Cruz do Arari,6820,150640,Pará,Belém,Norte,-0.66,-49.16,-1.45,-48.5,-4.371428571428572,-57.182857142857145
PA,Santa Izabel do Pará,68963,150650,Pará,Belém,Norte,-1.29,-48.16,-1.45,-48.5,-4.371428571428572,-57.182857142857145
PA,Santa Luzia do Pará,20341,150655,Pará,Belém,Norte,-1.51,-46.94,-1.45,-48.5,-4.371428571428572,-57.182857142857145
PA,Santa Maria das Barreiras,17639,150658,Pará,Belém,Norte,-8.85,-49.72,-1.45,-48.5,-4.371428571428572,-57.182857142857145
PA,Santa Maria do Pará,24583,150660,Pará,Belém,Norte,-1.35,-47.57,-1.45,-48.5,-4.371428571428572,-57.182857142857145
PA,Santana do Araguaia,44526,150670,Pará,Belém,Norte,-9.5,-50.62,-1.45,-48.5,-4.371428571428572,-57.182857142857145
PA,Santarém,351220,150680,Pará,Belém,Norte,-2.44,-54.7,-1.45,-48.5,-4.371428571428572,-57.182857142857145
PA,Santarém Novo,6116,150690,Pará,Belém,Norte,-0.92,-47.39,-1.45,-48.5,-4.371428571428572,-57.182857142857145
PA,Santo Antônio do Tauá,28282,150700,Pará,Belém,Norte,-1.15,-48.12,-1.45,-48.5,-4.371428571428572,-57.182857142857145
PA,São Caetano de Odivelas,15226,150710,Pará,Belém,Norte,-0.75,-48.02,-1.45,-48.5,-4.371428571428572,-57.182857142857145
PA,São Domingos do Araguaia,20970,150715,Pará,Belém,Norte,-5.53,-48.73,-1.45,-48.5,-4.371428571428572,-57.182857142857145
PA,São Domingos do Capim,30144,150720,Pará,Belém,Norte,-1.67,-47.77,-1.45,-48.5,-4.371428571428572,-57.182857142857145
PA,São Félix do Xingu,81161,150730,Pará,Belém,Norte,-6.64,-51.99,-1.45,-48.5,-4.371428571428572,-57.182857142857145
PA,São Francisco do Pará,14912,150740,Pará,Belém,Norte,-1.16,-47.79,-1.45,-48.5,-4.371428571428572,-57.182857142857145
PA,São Geraldo do Araguaia,24243,150745,Pará,Belém,Norte,-6.4,-48.55,-1.45,-48.5,-4.371428571428572,-57.182857142857145
PA,São João da Ponta,4264,150746,Pará,Belém,Norte,-0.85,-47.91,-1.45,-48.5,-4.371428571428572,-57.182857142857145
PA,São João de Pirabas,20593,150747,Pará,Belém,Norte,-0.76,-47.17,-1.45,-48.5,-4.371428571428572,-57.182857142857145
PA,São João do Araguaia,13446,150750,Pará,Belém,Norte,-5.35,-48.79,-1.45,-48.5,-4.371428571428572,-57.182857142857145
PA,São Miguel do Guamá,52810,150760,Pará,Belém,Norte,-1.62,-47.48,-1.45,-48.5,-4.371428571428572,-57.182857142857145
PA,São Sebastião da Boa Vista,31336,150770,Pará,Belém,Norte,-1.71,-49.54,-1.45,-48.5,-4.371428571428572,-57.182857142857145
PA,Sapucaia,5295,150775,Pará,Belém,Norte,-6.94,-49.68,-1.45,-48.5,-4.371428571428572,-57.182857142857145
PA,Senador José Porfírio,22651,150780,Pará,Belém,Norte,-2.59,-51.95,-1.45,-48.5,-4.371428571428572,-57.182857142857145
PA,Soure,24183,150790,Pará,Belém,Norte,-0.71,-48.52,-1.45,-48.5,-4.371428571428572,-57.182857142857145
PA,Tailândia,84206,150795,Pará,Belém,Norte,-2.94,-48.95,-1.45,-48.5,-4.371428571428572,-57.182857142857145
PA,Terra Alta,10404,150796,Pará,Belém,Norte,-1.03,-47.9,-1.45,-48.5,-4.371428571428572,-57.182857142857145
PA,Terra Santa,18804,150797,Pará,Belém,Norte,-2.1,-56.48,-1.45,-48.5,-4.371428571428572,-57.182857142857145
PA,Tomé-Açu,76055,150800,Pará,Belém,Norte,-2.41,-48.15,-1.45,-48.5,-4.371428571428572,-57.182857142857145
PA,Tracuateua,28015,150803,Pará,Belém,Norte,-1.07,-46.89,-1.45,-48.5,-4.371428571428572,-57.182857142857145
PA,Trairão,18924,150805,Pará,Belém,Norte,-4.57,-55.94,-1.45,-48.5,-4.371428571428572,-57.182857142857145
PA,Tucumã,34812,150808,Pará,Belém,Norte,-6.74,-51.16,-1.45,-48.5,-4.371428571428572,-57.182857142857145
PA,Tucuruí,90232,150810,Pará,Belém,Norte,-3.76,-49.67,-1.45,-48.5,-4.371428571428572,-57.182857142857145
PA,Ulianópolis,56562,150812,Pará,Belém,Norte,-3.75,-47.5,-1.45,-48.5,-4.371428571428572,-57.182857142857145
PA,Uruará,48511,150815,Pará,Belém,Norte,-3.71,-53.73,-1.45,-48.5,-4.371428571428572,-57.182857142857145
PA,Vigia,49096,150820,Pará,Belém,Norte,-0.85,-48.14,-1.45,-48.5,-4.371428571428572,-57.182857142857145
PA,Viseu,58095,150830,Pará,Belém,Norte,-1.19,-46.13,-1.45,-48.5,-4.371428571428572,-57.182857142857145
PA,Vitória do Xingu,15104,150835,Pará,Belém,Norte,-2.88,-52.0,-1.45,-48.5,-4.371428571428572,-57.182857142857145
PA,Xinguara,56127,150840,Pará,Belém,Norte,-7.09,-49.94,-1.45,-48.5,-4.371428571428572,-57.182857142857145
AP,Serra do Navio,4744,160005,Amapá,Macapá,Norte,0.89,-52.0,0.03,-51.06,-4.371428571428572,-57.182857142857145
AP,Amapá,7944,160010,Amapá,Macapá,Norte,2.05,-50.79,0.03,-51.06,-4.371428571428572,-57.182857142857145
AP,Pedra Branca do Amapari,12365,160015,Amapá,Macapá,Norte,0.77,-51.94,0.03,-51.06,-4.371428571428572,-57.182857142857145
AP,Calçoene,10613,160020,Amapá,Macapá,Norte,2.49,-50.94,0.03,-51.06,-4.371428571428572,-57.182857142857145
AP,Cutias,4388,160021,Amapá,Macapá,Norte,0.98,-50.8,0.03,-51.06,-4.371428571428572,-57.182857142857145
AP,Ferreira Gomes,6689,160023,Amapá,Macapá,Norte,0.85,-51.18,0.03,-51.06,-4.371428571428572,-57.182857142857145
AP,Itaubal,5477,160025,Amapá,Macapá,Norte,-0.59,-50.67,0.03,-51.06,-4.371428571428572,-57.182857142857145
AP,Laranjal do Jari,35038,160027,Amapá,Macapá,Norte,-0.84,-52.51,0.03,-51.06,-4.371428571428572,-57.182857142857145
AP,Macapá,478448,160030,Amapá,Macapá,Norte,0.03,-51.06,0.03,-51.06,-4.371428571428572,-57.182857142857145
AP,Mazagão,22105,160040,Amapá,Macapá,Norte,-0.11,-51.28,0.03,-51.06,-4.371428571428572,-57.182857142857145
AP,Oiapoque,27778,160050,Amapá,Macapá,Norte,3.84,-51.83,0.03,-51.06,-4.371428571428572,-57.182857142857145
AP,Porto Grande,17923,160053,Amapá,Macapá,Norte,0.71,-51.41,0.03,-51.06,-4.371428571428572,-57.182857142857145
AP,Pracuúba,3803,160055,Amapá,Macapá,Norte,1.74,-50.79,0.03,-51.06,-4.371428571428572,-57.182857142857145
AP,Santana,114995,160060,Amapá,Macapá,Norte,-0.05,-51.18,0.03,-51.06,-4.371428571428572,-57.182857142857145
AP,Tartarugalzinho,10511,160070,Amapá,Macapá,Norte,1.5,-50.91,0.03,-51.06,-4.371428571428572,-57.182857142857145
AP,Vitória do Jari,11447,160080,Amapá,Macapá,Norte,-0.93,-52.42,0.03,-51.06,-4.371428571428572,-57.182857142857145
TO,Abreulândia,2463,170025,Tocantins,Palmas,Norte,-9.62,-49.15,-10.16,-48.33,-4.371428571428572,-57.182857142857145
TO,Aguiarnópolis,4787,170030,Tocantins,Palmas,Norte,-6.56,-47.46,-10.16,-48.33,-4.371428571428572,-57.182857142857145
TO,Aliança do Tocantins,4932,170035,Tocantins,Palmas,Norte,-11.3,-48.93,-10.16,-48.33,-4.371428571428572,-57.182857142857145
TO,Almas,9044,170040,Tocantins,Palmas,Norte,-11.57,-47.16,-10.16,-48.33,-4.371428571428572,-57.182857142857145
TO,Alvorada,8821,170070,Tocantins,Palmas,Norte,-12.47,-49.12,-10.16,-48.33,-4.371428571428572,-57.182857142857145
TO,Ananás,10368,170100,Tocantins,Palmas,Norte,-6.36,-48.07,-10.16,-48.33,-4.371428571428572,-57.182857142857145
TO,Angico,3062,170105,Tocantins,Palmas,Norte,-6.38,-47.86,-10.16,-48.33,-4.371428571428572,-57.182857142857145
TO,Aparecida do Rio Negro,4965,170110,Tocantins,Palmas,Norte,-9.95,-47.97,-10.16,-48.33,-4.371428571428572,-57.182857142857145
TO,Aragominas,6914,170130,Tocantins,Palmas,Norte,-7.16,-48.52,-10.16,-48.33,-4.371428571428572,-57.182857142857145
TO,Araguacema,5913,170190,Tocantins,Palmas,Norte,-8.8,-49.55,-10.16,-48.33,-4.371428571428572,-57.182857142857145
TO,Araguaçu,8666,170200,Tocantins,Palmas,Norte,-12.93,-49.82,-10.16,-48.33,-4.371428571428572,-57.182857142857145
TO,Araguaína,186867,170210,Tocantins,Palmas,Norte,-7.19,-48.2,-10.16,-48.33,-4.371428571428572,-57.182857142857145
TO,Araguanã,4316,170215,Tocantins,Palmas,Norte,-6.58,-48.64,-10.16,-48.33,-4.371428571428572,-57.182857142857145
TO,Araguatins,31719,170220,Tocantins,Palmas,Norte,-5.65,-48.12,-10.16,-48.33,-4.371428571428572,-57.182857142857145
TO,Arapoema,5443,170230,Tocantins,Palmas,Norte,-7.65,-49.06,-10.16,-48.33,-4.371428571428572,-57.182857142857145
TO,Arraias,10253,170240,Tocantins,Palmas,Norte,-12.93,-46.93,-10.16,-48.33,-4.371428571428572,-57.182857142857145
TO,Augustinópolis,17471,170255,Tocantins,Palmas,Norte,-5.46,-47.88,-10.16,-48.33,-4.371428571428572,-57.182857142857145
TO,Aurora do Tocantins,3338,170270,Tocantins,Palmas,Norte,-12.71,-46.4,-10.16,-48.33,-4.371428571428572,-57.182857142857145
TO,Axixá do Tocantins,10267,170290,Tocantins,Palmas,Norte,-5.61,-47.76,-10.16,-48.33,-4.371428571428572,-57.182857142857145
TO,Babaçulândia,8218,170300,Tocantins,Palmas,Norte,-7.2,-47.75,-10.16,-48.33,-4.371428571428572,-57.182857142857145
TO,Bandeirantes do Tocantins,3548,170305,Tocantins,Palmas,Norte,-7.75,-48.58,-10.16,-48.33,-4.371428571428572,-57.182857142857145
TO,Barra do Ouro,4643,170307,Tocantins,Palmas,Norte,-7.68,-47.68,-10.16,-48.33,-4.371428571428572,-57.182857142857145
TO,Barrolândia,4875,170310,Tocantins,Palmas,Norte,-9.83,-48.72,-10.16,-48.33,-4.371428571428572,-57.182857142857145
TO,Bernardo Sayão,4217,170320,Tocantins,Palmas,Norte,-7.87,-48.88,-10.16,-48.33,-4.371428571428572,-57.182857142857145
TO,Bom Jesus do Tocantins,4087,170330,Tocantins,Palmas,Norte,-8.96,-48.16,-10.16,-48.33,-4.371428571428572,-57.182857142857145
TO,Brasilândia do Tocantins,1947,170360,Tocantins,Palmas,Norte,-8.38,-48.48,-10.16,-48.33,-4.371428571428572,-57.182857142857145
TO,Brejinho de Nazaré,4753,170370,Tocantins,Palmas,Norte,-11.0,-48.56,-10.16,-48.33,-4.371428571428572,-57.182857142857145
TO,Buriti do Tocantins,10346,170380,Tocantins,Palmas,Norte,-5.31,-48.22,-10.16,-48.33,-4.371428571428572,-57.182857142857145
TO,Cachoeirinha,1964,170382,Tocantins,Palmas,Norte,-6.12,-47.92,-10.16,-48.33,-4.371428571428572,-57.182857142857145
TO,Campos Lindos,8661,170384,Tocantins,Palmas,Norte,-7.99,-46.86,-10.16,-48.33,-4.371428571428572,-57.182857142857145
TO,Cariri do Tocantins,3555,170386,Tocantins,Palmas,Norte,-11.89,-49.16,-10.16,-48.33,-4.371428571428572,-57.182857142857145
TO,Carmolândia,2203,170388,Tocantins,Palmas,Norte,-7.03,-48.39,-10.16,-48.33,-4.371428571428572,-57.182857142857145
TO,Carrasco Bonito,3343,170389,Tocantins,Palmas,Norte,-5.32,-48.03,-10.16,-48.33,-4.371428571428572,-57.182857142857145
TO,Caseara,4764,170390,Tocantins,Palmas,Norte,-9.27,-49.95,-10.16,-48.33,-4.371428571428572,-57.182857142857145
TO,Centenário,2133,170410,Tocantins,Palmas,Norte,-8.95,-47.33,-10.16,-48.33,-4.371428571428572,-57.182857142857145
TO,Chapada de Areia,1358,170460,Tocantins,Palmas,Norte,-10.14,-49.13,-10.16,-48.33,-4.371428571428572,-57.182857142857145
TO,Chapada da Natividade,3118,170510,Tocantins,Palmas,Norte,-11.61,-47.75,-10.16,-48.33,-4.371428571428572,-57.182857142857145
TO,Colinas do Tocantins,33967,170550,Tocantins,Palmas,Norte,-8.05,-48.47,-10.16,-48.33,-4.371428571428572,-57.182857142857145
TO,Combinado,4751,170555,Tocantins,Palmas,Norte,-12.79,-46.53,-10.16,-48.33,-4.371428571428572,-57.182857142857145
TO,Conceição do Tocantins,3891,170560,Tocantins,Palmas,Norte,-12.21,-47.29,-10.16,-48.33,-4.371428571428572,-57.182857142857145
TO,Couto Magalhães,5254,170600,Tocantins,Palmas,Norte,-8.28,-49.24,-10.16,-48.33,-4.371428571428572,-57.182857142857145
TO,Cristalândia,6331,170610,Tocantins,Palmas,Norte,-10.6,-49.19,-10.16,-48.33,-4.371428571428572,-57.182857142857145
TO,Crixás do Tocantins,1411,170625,Tocantins,Palmas,Norte,-11.1,-48.91,-10.16,-48.33,-4.371428571428572,-57.182857142857145
TO,Darcinópolis,6357,170650,Tocantins,Palmas,Norte,-6.71,-47.75,-10.16,-48.33,-4.371428571428572,-57.182857142857145
TO,Dianópolis,17658,170700,Tocantins,Palmas,Norte,-11.62,-46.82,-10.16,-48.33,-4.371428571428572,-57.182857142857145
TO,Divinópolis do Tocantins,7065,170710,Tocantins,Palmas,Norte,-9.8,-49.21,-10.16,-48.33,-4.371428571428572,-57.182857142857145
TO,Dois Irmãos do Tocantins,6735,170720,Tocantins,Palmas,Norte,-9.25,-49.06,-10.16,-48.33,-4.371428571428572,-57.182857142857145
TO,Dueré,4284,170730,Tocantins,Palmas,Norte,-11.34,-49.27,-10.16,-48.33,-4.371428571428572,-57.182857142857145
TO,Esperantina,7510,170740,Tocantins,Palmas,Norte,-5.34,-48.51,-10.16,-48.33,-4.371428571428572,-57.182857142857145
TO,Fátima,3445,170755,Tocantins,Palmas,Norte,-10.76,-48.9,-10.16,-48.33,-4.371428571428572,-57.182857142857145
TO,Figueirópolis,5185,170765,Tocantins,Palmas,Norte,-12.13,-49.17,-10.16,-48.33,-4.371428571428572,-57.182857142857145
TO,Filadélfia,10590,170770,Tocantins,Palmas,Norte,-7.33,-47.49,-10.16,-48.33,-4.371428571428572,-57.182857142857145
TO,Formoso do Araguaia,20471,170820,Tocantins,Palmas,Norte,-11.79,-49.52,-10.16,-48.33,-4.371428571428572,-57.182857142857145
TO,Tabocão,3458,170825,Tocantins,Palmas,Norte,-9.05,-48.51,-10.16,-48.33,-4.371428571428572,-57.182857142857145
TO,Goianorte,4779,170830,Tocantins,Palmas,Norte,-8.77,-48.93,-10.16,-48.33,-4.371428571428572,-57.182857142857145
TO,Goiatins,12798,170900,Tocantins,Palmas,Norte,-7.71,-47.31,-10.16,-48.33,-4.371428571428572,-57.182857142857145
TO,Guaraí,26444,170930,Tocantins,Palmas,Norte,-8.83,-48.5,-10.16,-48.33,-4.371428571428572,-57.182857142857145
TO,Gurupi,83817,170950,Tocantins,Palmas,Norte,-11.72,-49.06,-10.16,-48.33,-4.371428571428572,-57.182857142857145
TO,Ipueiras,1597,170980,Tocantins,Palmas,Norte,-11.23,-48.46,-10.16,-48.33,-4.371428571428572,-57.182857142857145
TO,Itacajá,6780,171050,Tocantins,Palmas,Norte,-8.39,-47.76,-10.16,-48.33,-4.371428571428572,-57.182857142857145
TO,Itaguatins,5187,171070,Tocantins,Palmas,Norte,-5.76,-47.48,-10.16,-48.33,-4.371428571428572,-57.182857142857145
TO,Itapiratins,3936,171090,Tocantins,Palmas,Norte,-8.38,-48.11,-10.16,-48.33,-4.371428571428572,-57.182857142857145
TO,Itaporã do Tocantins,2407,171110,Tocantins,Palmas,Norte,-8.57,-48.68,-10.16,-48.33,-4.371428571428572,-57.182857142857145
TO,Jaú do Tocantins,3475,171150,Tocantins,Palmas,Norte,-12.65,-48.59,-10.16,-48.33,-4.371428571428572,-57.182857142857145
TO,Juarina,2240,171180,Tocantins,Palmas,Norte,-8.11,-49.06,-10.16,-48.33,-4.371428571428572,-57.182857142857145
TO,Lagoa da Confusão,16117,171190,Tocantins,Palmas,Norte,-10.79,-49.62,-10.16,-48.33,-4.371428571428572,-57.182857142857145
TO,Lagoa do Tocantins,3501,171195,Tocantins,Palmas,Norte,-10.37,-47.55,-10.16,-48.33,-4.371428571428572,-57.182857142857145
TO,Lajeado,3652,171200,Tocantins,Palmas,Norte,-9.75,-48.35,-10.16,-48.33,-4.371428571428572,-57.182857142857145
TO,Lavandeira,1625,171215,Tocantins,Palmas,Norte,-12.78,-46.5,-10.16,-48.33,-4.371428571428572,-57.182857142857145
TO,Lizarda,2994,171240,Tocantins,Palmas,Norte,-9.59,-46.67,-10.16,-48.33,-4.371428571428572,-57.182857142857145
TO,Luzinópolis,2989,171245,Tocantins,Palmas,Norte,-6.18,-47.85,-10.16,-48.33,-4.371428571428572,-57.182857142857145
TO,Marianópolis do Tocantins,4460,171250,Tocantins,Palmas,Norte,-9.79,-49.65,-10.16,-48.33,-4.371428571428572,-57.182857142857145
TO,Mateiros,2076,171270,Tocantins,Palmas,Norte,-10.54,-46.42,-10.16,-48.33,-4.371428571428572,-57.182857142857145
TO,Maurilândia do Tocantins,3234,171280,Tocantins,Palmas,Norte,-5.95,-47.5,-10.16,-48.33,-4.371428571428572,-57.182857142857145
TO,Miracema do Tocantins,19561,171320,Tocantins,Palmas,Norte,-9.56,-48.39,-10.16,-48.33,-4.371428571428572,-57.182857142857145
TO,Miranorte,13027,171330,Tocantins,Palmas,Norte,-9.52,-48.59,-10.16,-48.33,-4.371428571428572,-57.182857142857145
TO,Monte do Carmo,5874,171360,Tocantins,Palmas,Norte,-10.76,-48.1,-10.16,-48.33,-4.371428571428572,-57.182857142857145
TO,Monte Santo do Tocantins,2290,171370,Tocantins,Palmas,Norte,-10.0,-48.99,-10.16,-48.33,-4.371428571428572,-57.182857142857145
TO,Palmeiras do Tocantins,5359,171380,Tocantins,Palmas,Norte,-6.61,-47.54,-10.16,-48.33,-4.371428571428572,-57.182857142857145
TO,Muricilândia,3722,171395,Tocantins,Palmas,Norte,-7.14,-48.61,-10.16,-48.33,-4.371428571428572,-57.182857142857145
TO,Natividade,8643,171420,Tocantins,Palmas,Norte,-11.71,-47.72,-10.16,-48.33,-4.371428571428572,-57.182857142857145
TO,Nazaré,4664,171430,Tocantins,Palmas,Norte,-6.37,-47.66,-10.16,-48.33,-4.371428571428572,-57.182857142857145
TO,Nova Olinda,10353,171488,Tocantins,Palmas,Norte,-7.63,-48.42,-10.16,-48.33,-4.371428571428572,-57.182857142857145
TO,Nova Rosalândia,3334,171500,Tocantins,Palmas,Norte,-10.56,-48.91,-10.16,-48.33,-4.371428571428572,-57.182857142857145
TO,Novo Acordo,3828,171510,Tocantins,Palmas,Norte,-9.96,-47.67,-10.16,-48.33,-4.371428571428572,-57.182857142857145
TO,Novo Alegre,1845,171515,Tocantins,Palmas,Norte,-12.93,-46.57,-10.16,-48.33,-4.371428571428572,-57.182857142857145
TO,Novo Jardim,2235,171525,Tocantins,Palmas,Norte,-11.82,-46.62,-10.16,-48.33,-4.371428571428572,-57.182857142857145
TO,Oliveira de Fátima,1172,171550,Tocantins,Palmas,Norte,-10.7,-48.9,-10.16,-48.33,-4.371428571428572,-57.182857142857145
TO,Palmeirante,4947,171570,Tocantins,Palmas,Norte,-7.86,-47.92,-10.16,-48.33,-4.371428571428572,-57.182857142857145
TO,Palmeirópolis,7262,171575,Tocantins,Palmas,Norte,-13.04,-48.4,-10.16,-48.33,-4.371428571428572,-57.182857142857145
TO,Paraíso do Tocantins,51494,171610,Tocantins,Palmas,Norte,-10.17,-48.86,-10.16,-48.33,-4.371428571428572,-57.182857142857145
TO,Paranã,10492,171620,Tocantins,Palmas,Norte,-12.61,-47.88,-10.16,-48.33,-4.371428571428572,-57.182857142857145
TO,Pau D'Arco,4017,171630,Tocantins,Palmas,Norte,-7.53,-49.37,-10.16,-48.33,-4.371428571428572,-57.182857142857145
TO,Pedro Afonso,14675,171650,Tocantins,Palmas,Norte,-8.96,-48.17,-10.16,-48.33,-4.371428571428572,-57.182857142857145
TO,Peixe,9431,171660,Tocantins,Palmas,Norte,-12.02,-48.53,-10.16,-48.33,-4.371428571428572,-57.182857142857145
TO,Pequizeiro,4893,171665,Tocantins,Palmas,Norte,-8.59,-48.93,-10.16,-48.33,-4.371428571428572,-57.182857142857145
TO,Colméia,8476,171670,Tocantins,Palmas,Norte,-8.72,-48.76,-10.16,-48.33,-4.371428571428572,-57.182857142857145
TO,Pindorama do Tocantins,4128,171700,Tocantins,Palmas,Norte,-11.13,-47.57,-10.16,-48.33,-4.371428571428572,-57.182857142857145
TO,Piraquê,2278,171720,Tocantins,Palmas,Norte,-6.77,-48.29,-10.16,-48.33,-4.371428571428572,-57.182857142857145
TO,Pium,7132,171750,Tocantins,Palmas,Norte,-10.44,-49.18,-10.16,-48.33,-4.371428571428572,-57.182857142857145
TO,Ponte Alta do Bom Jesus,4222,171780,Tocantins,Palmas,Norte,-12.09,-46.47,-10.16,-48.33,-4.371428571428572,-57.182857142857145
TO,Ponte Alta do Tocantins,7284,171790,Tocantins,Palmas,Norte,-10.74,-47.53,-10.16,-48.33,-4.371428571428572,-57.182857142857145
TO,Porto Alegre do Tocantins,2869,171800,Tocantins,Palmas,Norte,-11.6,-47.04,-10.16,-48.33,-4.371428571428572,-57.182857142857145
TO,Porto Nacional,71101,171820,Tocantins,Palmas,Norte,-10.7,-48.41,-10.16,-48.33,-4.371428571428572,-57.182857142857145
TO,Praia Norte,8808,171830,Tocantins,Palmas,Norte,-5.39,-47.81,-10.16,-48.33,-4.371428571428572,-57.182857142857145
TO,Presidente Kennedy,2963,171840,Tocantins,Palmas,Norte,-8.53,-48.5,-10.16,-48.33,-4.371428571428572,-57.182857142857145
TO,Pugmil,2185,171845,Tocantins,Palmas,Norte,-10.42,-48.89,-10.16,-48.33,-4.371428571428572,-57.182857142857145
TO,Recursolândia,3380,171850,Tocantins,Palmas,Norte,-8.73,-47.24,-10.16,-48.33,-4.371428571428572,-57.182857142857145
TO,Riachinho,3962,171855,Tocantins,Palmas,Norte,-6.43,-48.13,-10.16,-48.33,-4.371428571428572,-57.182857142857145
TO,Rio da Conceição,1747,171865,Tocantins,Palmas,Norte,-11.39,-46.88,-10.16,-48.33,-4.371428571428572,-57.182857142857145
TO,Rio dos Bois,2737,171870,Tocantins,Palmas,Norte,-9.29,-48.46,-10.16,-48.33,-4.371428571428572,-57.182857142857145
TO,Rio Sono,5600,171875,Tocantins,Palmas,Norte,-9.34,-47.9,-10.16,-48.33,-4.371428571428572,-57.182857142857145
TO,Sampaio,4203,171880,Tocantins,Palmas,Norte,-5.34,-47.87,-10.16,-48.33,-4.371428571428572,-57.182857142857145
TO,Sandolândia,4631,171884,Tocantins,Palmas,Norte,-12.53,-49.92,-10.16,-48.33,-4.371428571428572,-57.182857142857145
TO,Santa Fé do Araguaia,7919,171886,Tocantins,Palmas,Norte,-7.15,-48.72,-10.16,-48.33,-4.371428571428572,-57.182857142857145
TO,Santa Maria do Tocantins,2557,171888,Tocantins,Palmas,Norte,-8.79,-47.79,-10.16,-48.33,-4.371428571428572,-57.182857142857145
TO,Santa Rita do Tocantins,2177,171889,Tocantins,Palmas,Norte,-10.86,-48.91,-10.16,-48.33,-4.371428571428572,-57.182857142857145
TO,Santa Rosa do Tocantins,4701,171890,Tocantins,Palmas,Norte,-11.44,-48.12,-10.16,-48.33,-4.371428571428572,-57.182857142857145
TO,Santa Tereza do Tocantins,2715,171900,Tocantins,Palmas,Norte,-10.28,-47.8,-10.16,-48.33,-4.371428571428572,-57.182857142857145
TO,Santa Terezinha do Tocantins,2560,172000,Tocantins,Palmas,Norte,-6.43,-47.67,-10.16,-48.33,-4.371428571428572,-57.182857142857145
TO,São Bento do Tocantins,5387,172010,Tocantins,Palmas,Norte,-5.91,-48.06,-10.16,-48.33,-4.371428571428572,-57.182857142857145
TO,São Félix do Tocantins,1780,172015,Tocantins,Palmas,Norte,-10.16,-46.65,-10.16,-48.33,-4.371428571428572,-57.182857142857145
TO,São Miguel do Tocantins,14103,172020,Tocantins,Palmas,Norte,-5.55,-47.57,-10.16,-48.33,-4.371428571428572,-57.182857142857145
TO,São Salvador do Tocantins,2481,172025,Tocantins,Palmas,Norte,-12.74,-48.23,-10.16,-48.33,-4.371428571428572,-57.182857142857145
TO,São Sebastião do Tocantins,4100,172030,Tocantins,Palmas,Norte,-5.25,-48.2,-10.16,-48.33,-4.371428571428572,-57.182857142857145
TO,São Valério,4399,172049,Tocantins,Palmas,Norte,-11.97,-48.23,-10.16,-48.33,-4.371428571428572,-57.182857142857145
TO,Silvanópolis,5126,172065,Tocantins,Palmas,Norte,-11.14,-48.16,-10.16,-48.33,-4.371428571428572,-57.182857142857145
TO,Sítio Novo do Tocantins,10830,172080,Tocantins,Palmas,Norte,-5.6,-47.63,-10.16,-48.33,-4.371428571428572,-57.182857142857145
TO,Sucupira,1576,172085,Tocantins,Palmas,Norte,-11.99,-48.97,-10.16,-48.33,-4.371428571428572,-57.182857142857145
TO,Taguatinga,13986,172090,Tocantins,Palmas,Norte,-12.4,-46.43,-10.16,-48.33,-4.371428571428572,-57.182857142857145
TO,Taipas do Tocantins,2023,172093,Tocantins,Palmas,Norte,-12.18,-46.98,-10.16,-48.33,-4.371428571428572,-57.182857142857145
TO,Talismã,2661,172097,Tocantins,Palmas,Norte,-12.79,-49.09,-10.16,-48.33,-4.371428571428572,-57.182857142857145
TO,Palmas,334454,172100,Tocantins,Palmas,Norte,-10.16,-48.33,-10.16,-48.33,-4.371428571428572,-57.182857142857145
TO,Tocantínia,8518,172110,Tocantins,Palmas,Norte,-9.56,-48.37,-10.16,-48.33,-4.371428571428572,-57.182857142857145
TO,Tocantinópolis,23847,172120,Tocantins,Palmas,Norte,-6.32,-47.41,-10.16,-48.33,-4.371428571428572,-57.182857142857145
TO,Tupirama,1803,172125,Tocantins,Palmas,Norte,-8.97,-48.18,-10.16,-48.33,-4.371428571428572,-57.182857142857145
TO,Tupiratins,1861,172130,Tocantins,Palmas,Norte,-8.39,-48.11,-10.16,-48.33,-4.371428571428572,-57.182857142857145
TO,Wanderlândia,11586,172208,Tocantins,Palmas,Norte,-6.84,-47.96,-10.16,-48.33,-4.371428571428572,-57.182857142857145
TO,Xambioá,10519,172210,Tocantins,Palmas,Norte,-6.41,-48.53,-10.16,-48.33,-4.371428571428572,-57.182857142857145
MA,Açailândia,107263,210005,Maranhão,São Luís,Nordeste,-4.94,-47.5,-2.52,-44.3,-7.311111111111111,-37.98777777777778
MA,Afonso Cunha,6144,210010,Maranhão,São Luís,Nordeste,-4.13,-43.32,-2.52,-44.3,-7.311111111111111,-37.98777777777778
MA,Água Doce do Maranhão,12154,210015,Maranhão,São Luís,Nordeste,-2.84,-42.11,-2.52,-44.3,-7.311111111111111,-37.98777777777778
MA,Alcântara,18446,210020,Maranhão,São Luís,Nordeste,-2.4,-44.41,-2.52,-44.3,-7.311111111111111,-37.98777777777778
MA,Aldeias Altas,22549,210030,Maranhão,São Luís,Nordeste,-4.62,-43.47,-2.52,-44.3,-7.311111111111111,-37.98777777777778
MA,Altamira do Maranhão,6451,210040,Maranhão,São Luís,Nordeste,-4.16,-45.47,-2.52,-44.3,-7.311111111111111,-37.98777777777778
MA,Alto Alegre do Maranhão,23270,210043,Maranhão,São Luís,Nordeste,-4.21,-44.44,-2.52,-44.3,-7.311111111111111,-37.98777777777778
MA,Alto Alegre do Pindaré,25673,210047,Maranhão,São Luís,Nordeste,-3.69,-45.9,-2.52,-44.3,-7.311111111111111,-37.98777777777778
MA,Alto Parnaíba,11076,210050,Maranhão,São Luís,Nordeste,-9.11,-45.93,-2.52,-44.3,-7.311111111111111,-37.98777777777778
MA,Amapá do Maranhão,7162,210055,Maranhão,São Luís,Nordeste,-1.67,-46.0,-2.52,-44.3,-7.311111111111111,-37.98777777777778
MA,Amarante do Maranhão,36266,210060,Maranhão,São Luís,Nordeste,-5.56,-46.74,-2.52,-44.3,-7.311111111111111,-37.98777777777778
MA,Anajatuba,23968,210070,Maranhão,São Luís,Nordeste,-3.26,-44.61,-2.52,-44.3,-7.311111111111111,-37.98777777777778
MA,Anapurus,13795,210080,Maranhão,São Luís,Nordeste,-3.67,-43.11,-2.52,-44.3,-7.311111111111111,-37.98777777777778
MA,Apicum-Açu,17533,210083,Maranhão,São Luís,Nordeste,-1.46,-45.1,-2.52,-44.3,-7.311111111111111,-37.98777777777778
MA,Araguanã,11169,210087,Maranhão,São Luís,Nordeste,-2.95,-45.66,-2.52,-44.3,-7.311111111111111,-37.98777777777778
MA,Araioses,38980,210090,Maranhão,São Luís,Nordeste,-2.89,-41.9,-2.52,-44.3,-7.311111111111111,-37.98777777777778
MA,Arame,25646,210095,Maranhão,São Luís,Nordeste,-4.73,-45.9,-2.52,-44.3,-7.311111111111111,-37.98777777777778
MA,Arari,29302,210100,Maranhão,São Luís,Nordeste,-3.45,-44.77,-2.52,-44.3,-7.311111111111111,-37.98777777777778
MA,Axixá,11797,210110,Maranhão,São Luís,Nordeste,-2.83,-44.05,-2.52,-44.3,-7.311111111111111,-37.98777777777778
MA,Bacabal,104352,210120,Maranhão,São Luís,Nordeste,-4.22,-44.77,-2.52,-44.3,-7.311111111111111,-37.98777777777778
MA,Bacabeira,17073,210125,Maranhão,São Luís,Nordeste,-2.97,-44.31,-2.52,-44.3,-7.311111111111111,-37.98777777777778
MA,Bacuri,16206,210130,Maranhão,São Luís,Nordeste,-1.7,-45.13,-2.52,-44.3,-7.311111111111111,-37.98777777777778
MA,Bacurituba,5196,210135,Maranhão,São Luís,Nordeste,-2.7,-44.73,-2.52,-44.3,-7.311111111111111,-37.98777777777778
MA,Balsas,100257,210140,Maranhão,São Luís,Nordeste,-7.53,-46.03,-2.52,-44.3,-7.311111111111111,-37.98777777777778
MA,Barão de Grajaú,19310,210150,Maranhão,São Luís,Nordeste,-6.75,-43.02,-2.52,-44.3,-7.311111111111111,-37.98777777777778
MA,Barra do Corda,84708,210160,Maranhão,São Luís,Nordeste,-5.5,-45.24,-2.52,-44.3,-7.311111111111111,-37.98777777777778
MA,Barreirinhas,69312,210170,Maranhão,São Luís,Nordeste,-2.74,-42.82,-2.52,-44.3,-7.311111111111111,-37.98777777777778
MA,Belágua,8504,210173,Maranhão,São Luís,Nordeste,-3.15,-43.5,-2.52,-44.3,-7.311111111111111,-37.98777777777778
MA,Bela Vista do Maranhão,11911,210177,Maranhão,São Luís,Nordeste,-3.73,-45.31,-2.52,-44.3,-7.311111111111111,-37.98777777777778
MA,Benedito Leite,5472,210180,Maranhão,São Luís,Nordeste,-7.22,-44.55,-2.52,-44.3,-7.311111111111111,-37.98777777777778
MA,Bequimão,19572,210190,Maranhão,São Luís,Nordeste,-2.44,-44.78,-2.52,-44.3,-7.311111111111111,-37.98777777777778
MA,Bernardo do Mearim,5842,210193,Maranhão,São Luís,Nordeste,-4.58,-44.76,-2.52,-44.3,-7.311111111111111,-37.98777777777778
MA,Boa Vista do Gurupi,7622,210197,Maranhão,São Luís,Nordeste,-1.78,-46.3,-2.52,-44.3,-7.311111111111111,-37.98777777777778
MA,Bom Jardim,32894,210200,Maranhão,São Luís,Nordeste,-3.56,-45.99,-2.52,-44.3,-7.311111111111111,-37.98777777777778
MA,Bom Jesus das Selvas,28589,210203,Maranhão,São Luís,Nordeste,-4.42,-46.76,-2.52,-44.3,-7.311111111111111,-37.98777777777778
MA,Bom Lugar,11675,210207,Maranhão,São Luís,Nordeste,-4.21,-45.03,-2.52,-44.3,-7.311111111111111,-37.98777777777778
MA,Brejo,34116,210210,Maranhão,São Luís,Nordeste,-3.68,-42.75,-2.52,-44.3,-7.311111111111111,-37.98777777777778
MA,Brejo de Areia,9224,210215,Maranhão,São Luís,Nordeste,-4.33,-45.58,-2.52,-44.3,-7.311111111111111,-37.98777777777778
MA,Buriti,29693,210220,Maranhão,São Luís,Nordeste,-3.94,-42.92,-2.52,-44.3,-7.311111111111111,-37.98777777777778
MA,Buriti Bravo,22427,210230,Maranhão,São Luís,Nordeste,-5.83,-43.83,-2.52,-44.3,-7.311111111111111,-37.98777777777778
MA,Buriticupu,52395,210232,Maranhão,São Luís,Nordeste,-4.34,-46.4,-2.52,-44.3,-7.311111111111111,-37.98777777777778
MA,Buritirana,12870,210235,Maranhão,São Luís,Nordeste,-5.59,-47.01,-2.52,-44.3,-7.311111111111111,-37.98777777777778
MA,Cachoeira Grande,10227,210237,Maranhão,São Luís,Nordeste,-2.92,-44.05,-2.52,-44.3,-7.311111111111111,-37.98777777777778
MA,Cajapió,10032,210240,Maranhão,São Luís,Nordeste,-2.88,-44.67,-2.52,-44.3,-7.311111111111111,-37.98777777777778
MA,Cajari,16296,210250,Maranhão,São Luís,Nordeste,-3.32,-45.01,-2.52,-44.3,-7.311111111111111,-37.98777777777778
MA,Campestre do Maranhão,12185,210255,Maranhão,São Luís,Nordeste,-6.17,-47.36,-2.52,-44.3,-7.311111111111111,-37.98777777777778
MA,Cândido Mendes,19805,210260,Maranhão,São Luís,Nordeste,-1.44,-45.71,-2.52,-44.3,-7.311111111111111,-37.98777777777778
MA,Cantanhede,17355,210270,Maranhão,São Luís,Nordeste,-3.63,-44.37,-2.52,-44.3,-7.311111111111111,-37.98777777777778
MA,Capinzal do Norte,11372,210275,Maranhão,São Luís,Nordeste,-4.72,-44.32,-2.52,-44.3,-7.311111111111111,-37.98777777777778
MA,Carolina,24056,210280,Maranhão,São Luís,Nordeste,-7.33,-47.46,-2.52,-44.3,-7.311111111111111,-37.98777777777778
MA,Carutapera,24263,210290,Maranhão,São Luís,Nordeste,-1.19,-46.02,-2.52,-44.3,-7.311111111111111,-37.98777777777778
MA,Caxias,153634,210300,Maranhão,São Luís,Nordeste,-4.85,-43.35,-2.52,-44.3,-7.311111111111111,-37.98777777777778
MA,Cedral,10214,210310,Maranhão,São Luís,Nordeste,-2.0,-44.53,-2.52,-44.3,-7.311111111111111,-37.98777777777778
MA,Central do Maranhão,7086,210312,Maranhão,São Luís,Nordeste,-2.19,-44.82,-2.52,-44.3,-7.311111111111111,-37.98777777777778
MA,Centro do Guilherme,12384,210315,Maranhão,São Luís,Nordeste,-2.36,-46.0,-2.52,-44.3,-7.311111111111111,-37.98777777777778
MA,Centro Novo do Maranhão,16254,210317,Maranhão,São Luís,Nordeste,-2.1,-46.12,-2.52,-44.3,-7.311111111111111,-37.98777777777778
MA,Chapadinha,81339,210320,Maranhão,São Luís,Nordeste,-3.74,-43.36,-2.52,-44.3,-7.311111111111111,-37.98777777777778
MA,Cidelândia,12857,210325,Maranhão,São Luís,Nordeste,-5.17,-47.78,-2.52,-44.3,-7.311111111111111,-37.98777777777778
MA,Codó,112110,210330,Maranhão,São Luís,Nordeste,-4.45,-43.88,-2.52,-44.3,-7.311111111111111,-37.98777777777778
MA,Coelho Neto,41353,210340,Maranhão,São Luís,Nordeste,-4.25,-43.01,-2.52,-44.3,-7.311111111111111,-37.98777777777778
MA,Colinas,40322,210350,Maranhão,São Luís,Nordeste,-6.02,-44.24,-2.52,-44.3,-7.311111111111111,-37.98777777777778
MA,Conceição do Lago-Açu,14921,210355,Maranhão,São Luís,Nordeste,-3.83,-44.89,-2.52,-44.3,-7.311111111111111,-37.98777777777778
MA,Coroatá,59563,210360,Maranhão,São Luís,Nordeste,-4.13,-44.12,-2.52,-44.3,-7.311111111111111,-37.98777777777778
MA,Cururupu,31662,210370,Maranhão,São Luís,Nordeste,-1.82,-44.86,-2.52,-44.3,-7.311111111111111,-37.98777777777778
MA,Davinópolis,14467,210375,Maranhão,São Luís,Nordeste,-5.55,-47.42,-2.52,-44.3,-7.311111111111111,-37.98777777777778
MA,Dom Pedro,23111,210380,Maranhão,São Luís,Nordeste,-5.03,-44.43,-2.52,-44.3,-7.311111111111111,-37.98777777777778
MA,Duque Bacelar,10223,210390,Maranhão,São Luís,Nordeste,-4.15,-42.94,-2.52,-44.3,-7.311111111111111,-37.98777777777778
MA,Esperantinópolis,18355,210400,Maranhão,São Luís,Nordeste,-4.88,-44.68,-2.52,-44.3,-7.311111111111111,-37.98777777777778
MA,Estreito,33245,210405,Maranhão,São Luís,Nordeste,-6.56,-47.45,-2.52,-44.3,-7.311111111111111,-37.98777777777778
MA,Feira Nova do Maranhão,8048,210407,Maranhão,São Luís,Nordeste,-6.96,-46.68,-2.52,-44.3,-7.311111111111111,-37.98777777777778
MA,Fernando Falcão,10875,210408,Maranhão,São Luís,Nordeste,-6.15,-44.89,-2.52,-44.3,-7.311111111111111,-37.98777777777778
MA,Formosa da Serra Negra,17758,210409,Maranhão,São Luís,Nordeste,-6.43,-46.19,-2.52,-44.3,-7.311111111111111,-37.98777777777778
MA,Fortaleza dos Nogueiras,12642,210410,Maranhão,São Luís,Nordeste,-6.96,-46.17,-2.52,-44.3,-7.311111111111111,-37.98777777777778
MA,Fortuna,17075,210420,Maranhão,São Luís,Nordeste,-5.73,-44.15,-2.52,-44.3,-7.311111111111111,-37.98777777777778
MA,Godofredo Viana,9894,210430,Maranhão,São Luís,Nordeste,-1.4,-45.77,-2.52,-44.3,-7.311111111111111,-37.98777777777778
MA,Gonçalves Dias,17432,210440,Maranhão,São Luís,Nordeste,-5.15,-44.29,-2.52,-44.3,-7.311111111111111,-37.98777777777778
MA,Governador Archer,10294,210450,Maranhão,São Luís,Nordeste,-5.02,-44.27,-2.52,-44.3,-7.311111111111111,-37.98777777777778
MA,Governador Edison Lobão,18375,210455,Maranhão,São Luís,Nordeste,-5.74,-47.36,-2.52,-44.3,-7.311111111111111,-37.98777777777778
MA,Governador Eugênio Barros,13918,210460,Maranhão,São Luís,Nordeste,-5.32,-44.24,-2.52,-44.3,-7.311111111111111,-37.98777777777778
MA,Governador Luiz Rocha,7061,210462,Maranhão,São Luís,Nordeste,-5.46,-44.07,-2.52,-44.3,-7.311111111111111,-37.98777777777778
MA,Governador Newton Bello,10708,210465,Maranhão,São Luís,Nordeste,-3.42,-45.67,-2.52,-44.3,-7.311111111111111,-37.98777777777778
MA,Governador Nunes Freire,22754,210467,Maranhão,São Luís,Nordeste,-2.12,-45.88,-2.52,-44.3,-7.311111111111111,-37.98777777777778
MA,Graça Aranha,6012,210470,Maranhão,São Luís,Nordeste,-5.4,-44.33,-2.52,-44.3,-7.311111111111111,-37.98777777777778
MA,Grajaú,73942,210480,Maranhão,São Luís,Nordeste,-5.81,-46.13,-2.52,-44.3,-7.311111111111111,-37.98777777777778
MA,Guimarães,10285,210490,Maranhão,São Luís,Nordeste,-2.13,-44.6,-2.52,-44.3,-7.311111111111111,-37.98777777777778
MA,Humberto de Campos,25656,210500,Maranhão,São Luís,Nordeste,-2.59,-43.46,-2.52,-44.3,-7.311111111111111,-37.98777777777778
MA,Icatu,24719,210510,Maranhão,São Luís,Nordeste,-2.77,-44.06,-2.52,-44.3,-7.311111111111111,-37.98777777777778
MA,Igarapé do Meio,13483,210515,Maranhão,São Luís,Nordeste,-3.66,-45.22,-2.52,-44.3,-7.311111111111111,-37.98777777777778
MA,Igarapé Grande,10222,210520,Maranhão,São Luís,Nordeste,-4.58,-44.85,-2.52,-44.3,-7.311111111111111,-37.98777777777778
MA,Imperatriz,273027,210530,Maranhão,São Luís,Nordeste,-5.52,-47.47,-2.52,-44.3,-7.311111111111111,-37.98777777777778
MA,Itaipava do Grajaú,13847,210535,Maranhão,São Luís,Nordeste,-5.14,-45.79,-2.52,-44.3,-7.311111111111111,-37.98777777777778
MA,Itapecuru Mirim,65721,210540,Maranhão,São Luís,Nordeste,-3.39,-44.35,-2.52,-44.3,-7.311111111111111,-37.98777777777778
MA,Itinga do Maranhão,23904,210542,Maranhão,São Luís,Nordeste,-4.44,-47.52,-2.52,-44.3,-7.311111111111111,-37.98777777777778
MA,Jatobá,8239,210545,Maranhão,São Luís,Nordeste,-5.81,-44.22,-2.52,-44.3,-7.311111111111111,-37.98777777777778
MA,Jenipapo dos Vieiras,17066,210547,Maranhão,São Luís,Nordeste,-5.37,-45.63,-2.52,-44.3,-7.311111111111111,-37.98777777777778
MA,João Lisboa,24609,210550,Maranhão,São Luís,Nordeste,-5.44,-47.4,-2.52,-44.3,-7.311111111111111,-37.98777777777778
MA,Joselândia,14942,210560,Maranhão,São Luís,Nordeste,-4.96,-44.7,-2.52,-44.3,-7.311111111111111,-37.98777777777778
MA,Junco do Maranhão,5146,210565,Maranhão,São Luís,Nordeste,-1.84,-46.09,-2.52,-44.3,-7.311111111111111,-37.98777777777778
MA,Lago da Pedra,44422,210570,Maranhão,São Luís,Nordeste,-4.57,-45.13,-2.52,-44.3,-7.311111111111111,-37.98777777777778
MA,Lago do Junco,9491,210580,Maranhão,São Luís,Nordeste,-4.6,-45.04,-2.52,-44.3,-7.311111111111111,-37.98777777777778
MA,Lago Verde,14678,210590,Maranhão,São Luís,Nordeste,-3.95,-44.82,-2.52,-44.3,-7.311111111111111,-37.98777777777778
MA,Lagoa do Mato,10583,210592,Maranhão,São Luís,Nordeste,-6.04,-43.52,-2.52,-44.3,-7.311111111111111,-37.98777777777778
MA,Lago dos Rodrigues,8755,210594,Maranhão,São Luís,Nordeste,-4.6,-44.97,-2.52,-44.3,-7.311111111111111,-37.98777777777778
MA,Lagoa Grande do Maranhão,11417,210596,Maranhão,São Luís,Nordeste,-4.81,-45.33,-2.52,-44.3,-7.311111111111111,-37.98777777777778
MA,Lajeado Novo,7051,210598,Maranhão,São Luís,Nordeste,-6.18,-47.03,-2.52,-44.3,-7.311111111111111,-37.98777777777778
MA,Lima Campos,11320,210600,Maranhão,São Luís,Nordeste,-4.51,-44.46,-2.52,-44.3,-7.311111111111111,-37.98777777777778
MA,Loreto,11526,210610,Maranhão,São Luís,Nordeste,-7.08,-45.14,-2.52,-44.3,-7.311111111111111,-37.98777777777778
MA,Luís Domingues,7159,210620,Maranhão,São Luís,Nordeste,-1.26,-45.87,-2.52,-44.3,-7.311111111111111,-37.98777777777778
MA,Magalhães de Almeida,13747,210630,Maranhão,São Luís,Nordeste,-3.39,-42.2,-2.52,-44.3,-7.311111111111111,-37.98777777777778
MA,Maracaçumé,21106,210632,Maranhão,São Luís,Nordeste,-2.04,-45.95,-2.52,-44.3,-7.311111111111111,-37.98777777777778
MA,Marajá do Sena,7200,210635,Maranhão,São Luís,Nordeste,-4.59,-45.57,-2.52,-44.3,-7.311111111111111,-37.98777777777778
MA,Maranhãozinho,13797,210637,Maranhão,São Luís,Nordeste,-2.24,-45.85,-2.52,-44.3,-7.311111111111111,-37.98777777777778
MA,Mata Roma,16919,210640,Maranhão,São Luís,Nordeste,-3.62,-43.11,-2.52,-44.3,-7.311111111111111,-37.98777777777778
MA,Matinha,21808,210650,Maranhão,São Luís,Nordeste,-3.1,-45.03,-2.52,-44.3,-7.311111111111111,-37.98777777777778
MA,Matões,31954,210660,Maranhão,São Luís,Nordeste,-5.51,-43.19,-2.52,-44.3,-7.311111111111111,-37.98777777777778
MA,Matões do Norte,17582,210663,Maranhão,São Luís,Nordeste,-3.63,-44.55,-2.52,-44.3,-7.311111111111111,-37.98777777777778
MA,Milagres do Maranhão,8812,210667,Maranhão,São Luís,Nordeste,-3.58,-42.6,-2.52,-44.3,-7.311111111111111,-37.98777777777778
MA,Mirador,20998,210670,Maranhão,São Luís,Nordeste,-6.37,-44.36,-2.52,-44.3,-7.311111111111111,-37.98777777777778
MA,Miranda do Norte,20562,210675,Maranhão,São Luís,Nordeste,-3.56,-44.58,-2.52,-44.3,-7.311111111111111,-37.98777777777778
MA,Mirinzal,13958,210680,Maranhão,São Luís,Nordeste,-2.06,-44.78,-2.52,-44.3,-7.311111111111111,-37.98777777777778
MA,Monção,27620,210690,Maranhão,São Luís,Nordeste,-3.49,-45.25,-2.52,-44.3,-7.311111111111111,-37.98777777777778
MA,Montes Altos,10286,210700,Maranhão,São Luís,Nordeste,-5.83,-47.06,-2.52,-44.3,-7.311111111111111,-37.98777777777778
MA,Morros,18054,210710,Maranhão,São Luís,Nordeste,-2.86,-44.03,-2.52,-44.3,-7.311111111111111,-37.98777777777778
MA,Nina Rodrigues,12477,210720,Maranhão,São Luís,Nordeste,-3.46,-43.9,-2.52,-44.3,-7.311111111111111,-37.98777777777778
MA,Nova Colinas,5021,210725,Maranhão,São Luís,Nordeste,-7.11,-46.25,-2.52,-44.3,-7.311111111111111,-37.98777777777778
MA,Nova Iorque,4308,210730,Maranhão,São Luís,Nordeste,-6.73,-44.04,-2.52,-44.3,-7.311111111111111,-37.98777777777778
MA,Nova Olinda do Maranhão,14277,210735,Maranhão,São Luís,Nordeste,-2.84,-45.69,-2.52,-44.3,-7.311111111111111,-37.98777777777778
MA,Olho d'Água das Cunhãs,17937,210740,Maranhão,São Luís,Nordeste,-4.13,-45.11,-2.52,-44.3,-7.311111111111111,-37.98777777777778
MA,Olinda Nova do Maranhão,13320,210745,Maranhão,São Luís,Nordeste,-2.99,-44.99,-2.52,-44.3,-7.311111111111111,-37.98777777777778
MA,Paço do Lumiar,145752,210750,Maranhão,São Luís,Nordeste,-2.53,-44.1,-2.52,-44.3,-7.311111111111111,-37.98777777777778
MA,Palmeirândia,21056,210760,Maranhão,São Luís,Nordeste,-2.64,-44.89,-2.52,-44.3,-7.311111111111111,-37.98777777777778
MA,Paraibano,19530,210770,Maranhão,São Luís,Nordeste,-6.43,-43.98,-2.52,-44.3,-7.311111111111111,-37.98777777777778
MA,Parnarama,31179,210780,Maranhão,São Luís,Nordeste,-5.68,-43.09,-2.52,-44.3,-7.311111111111111,-37.98777777777778
MA,Passagem Franca,17244,210790,Maranhão,São Luís,Nordeste,-6.17,-43.78,-2.52,-44.3,-7.311111111111111,-37.98777777777778
MA,Pastos Bons,18724,210800,Maranhão,São Luís,Nordeste,-6.6,-44.07,-2.52,-44.3,-7.311111111111111,-37.98777777777778
MA,Paulino Neves,17054,210805,Maranhão,São Luís,Nordeste,-2.71,-42.53,-2.52,-44.3,-7.311111111111111,-37.98777777777778
MA,Paulo Ramos,20183,210810,Maranhão,São Luís,Nordeste,-4.44,-45.23,-2.52,-44.3,-7.311111111111111,-37.98777777777778
MA,Pedreiras,36980,210820,Maranhão,São Luís,Nordeste,-4.57,-44.59,-2.52,-44.3,-7.311111111111111,-37.98777777777778
MA,Pedro do Rosário,24260,210825,Maranhão,São Luís,Nordeste,-2.97,-45.34,-2.52,-44.3,-7.311111111111111,-37.98777777777778
MA,Penalva,32436,210830,Maranhão,São Luís,Nordeste,-3.29,-45.17,-2.52,-44.3,-7.311111111111111,-37.98777777777778
MA,Peri Mirim,11093,210840,Maranhão,São Luís,Nordeste,-2.57,-44.85,-2.52,-44.3,-7.311111111111111,-37.98777777777778
MA,Peritoró,20471,210845,Maranhão,São Luís,Nordeste,-4.38,-44.33,-2.52,-44.3,-7.311111111111111,-37.98777777777778
MA,Pindaré-Mirim,29440,210850,Maranhão,São Luís,Nordeste,-3.6,-45.34,-2.52,-44.3,-7.311111111111111,-37.98777777777778
MA,Pinheiro,85054,210860,Maranhão,São Luís,Nordeste,-2.52,-45.08,-2.52,-44.3,-7.311111111111111,-37.98777777777778
MA,Pio XII,21941,210870,Maranhão,São Luís,Nordeste,-3.89,-45.16,-2.52,-44.3,-7.311111111111111,-37.98777777777778
MA,Pirapemas,14819,210880,Maranhão,São Luís,Nordeste,-3.72,-44.22,-2.52,-44.3,-7.311111111111111,-37.98777777777778
MA,Poção de Pedras,17133,210890,Maranhão,São Luís,Nordeste,-4.74,-44.94,-2.52,-44.3,-7.311111111111111,-37.98777777777778
MA,Porto Franco,23565,210900,Maranhão,São Luís,Nordeste,-6.33,-47.39,-2.52,-44.3,-7.311111111111111,-37.98777777777778
MA,Porto Rico do Maranhão,5961,210905,Maranhão,São Luís,Nordeste,-1.89,-44.6,-2.52,-44.3,-7.311111111111111,-37.98777777777778
MA,Presidente Dutra,45102,210910,Maranhão,São Luís,Nordeste,-5.28,-44.49,-2.52,-44.3,-7.311111111111111,-37.98777777777778
MA,Presidente Juscelino,11293,210920,Maranhão,São Luís,Nordeste,-2.92,-44.06,-2.52,-44.3,-7.311111111111111,-37.98777777777778
MA,Presidente Médici,4575,210923,Maranhão,São Luís,Nordeste,-2.38,-45.81,-2.52,-44.3,-7.311111111111111,-37.98777777777778
MA,Presidente Sarney,17542,210927,Maranhão,São Luís,Nordeste,-2.59,-45.36,-2.52,-44.3,-7.311111111111111,-37.98777777777778
MA,Presidente Vargas,9616,210930,Maranhão,São Luís,Nordeste,-3.4,-44.02,-2.52,-44.3,-7.311111111111111,-37.98777777777778
MA,Primeira Cruz,13095,210940,Maranhão,São Luís,Nordeste,-2.5,-43.43,-2.52,-44.3,-7.311111111111111,-37.98777777777778
MA,Raposa,31667,210945,Maranhão,São Luís,Nordeste,-2.42,-44.1,-2.52,-44.3,-7.311111111111111,-37.98777777777778
MA,Riachão,22153,210950,Maranhão,São Luís,Nordeste,-7.36,-46.61,-2.52,-44.3,-7.311111111111111,-37.98777777777778
MA,Ribamar Fiquene,7424,210955,Maranhão,São Luís,Nordeste,-5.92,-47.38,-2.52,-44.3,-7.311111111111111,-37.98777777777778
MA,Rosário,36688,210960,Maranhão,São Luís,Nordeste,-2.93,-44.23,-2.52,-44.3,-7.311111111111111,-37.98777777777778
MA,Sambaíba,5568,210970,Maranhão,São Luís,Nordeste,-7.13,-45.34,-2.52,-44.3,-7.311111111111111,-37.98777777777778
MA,Santa Filomena do Maranhão,6698,210975,Maranhão,São Luís,Nordeste,-5.5,-44.56,-2.52,-44.3,-7.311111111111111,-37.98777777777778
MA,Santa Helena,41221,210980,Maranhão,São Luís,Nordeste,-2.23,-45.29,-2.52,-44.3,-7.311111111111111,-37.98777777777778
MA,Santa Inês,85261,210990,Maranhão,São Luís,Nordeste,-3.66,-45.38,-2.52,-44.3,-7.311111111111111,-37.98777777777778
MA,Santa Luzia,57189,211000,Maranhão,São Luís,Nordeste,-4.06,-45.68,-2.52,-44.3,-7.311111111111111,-37.98777777777778
MA,Santa Luzia do Paruá,23413,211003,Maranhão,São Luís,Nordeste,-2.62,-45.77,-2.52,-44.3,-7.311111111111111,-37.98777777777778
MA,Santa Quitéria do Maranhão,23782,211010,Maranhão,São Luís,Nordeste,-3.51,-42.54,-2.52,-44.3,-7.311111111111111,-37.98777777777778
MA,Santa Rita,35231,211020,Maranhão,São Luís,Nordeste,-3.14,-44.32,-2.52,-44.3,-7.311111111111111,-37.98777777777778
MA,Santana do Maranhão,10325,211023,Maranhão,São Luís,Nordeste,-3.11,-42.41,-2.52,-44.3,-7.311111111111111,-37.98777777777778
MA,Santo Amaro do Maranhão,13193,211027,Maranhão,São Luís,Nordeste,-2.5,-43.25,-2.52,-44.3,-7.311111111111111,-37.98777777777778
MA,Santo Antônio dos Lopes,14298,211030,Maranhão,São Luís,Nordeste,-4.86,-44.36,-2.52,-44.3,-7.311111111111111,-37.98777777777778
MA,São Benedito do Rio Preto,18306,211040,Maranhão,São Luís,Nordeste,-3.33,-43.52,-2.52,-44.3,-7.311111111111111,-37.98777777777778
MA,São Bento,46307,211050,Maranhão,São Luís,Nordeste,-2.69,-44.82,-2.52,-44.3,-7.311111111111111,-37.98777777777778
MA,São Bernardo,26899,211060,Maranhão,São Luís,Nordeste,-3.36,-42.41,-2.52,-44.3,-7.311111111111111,-37.98777777777778
MA,São Domingos do Azeitão,7937,211065,Maranhão,São Luís,Nordeste,-6.8,-44.64,-2.52,-44.3,-7.311111111111111,-37.98777777777778
MA,São Domingos do Maranhão,33837,211070,Maranhão,São Luís,Nordeste,-5.57,-44.38,-2.52,-44.3,-7.311111111111111,-37.98777777777778
MA,São Félix de Balsas,4402,211080,Maranhão,São Luís,Nordeste,-7.08,-44.81,-2.52,-44.3,-7.311111111111111,-37.98777777777778
MA,São Francisco do Brejão,8837,211085,Maranhão,São Luís,Nordeste,-5.12,-47.38,-2.52,-44.3,-7.311111111111111,-37.98777777777778
MA,São Francisco do Maranhão,12049,211090,Maranhão,São Luís,Nordeste,-6.25,-42.85,-2.52,-44.3,-7.311111111111111,-37.98777777777778
MA,São João Batista,18559,211100,Maranhão,São Luís,Nordeste,-2.95,-44.8,-2.52,-44.3,-7.311111111111111,-37.98777777777778
MA,São João do Carú,12297,211102,Maranhão,São Luís,Nordeste,-3.55,-46.25,-2.52,-44.3,-7.311111111111111,-37.98777777777778
MA,São João do Paraíso,9622,211105,Maranhão,São Luís,Nordeste,-6.46,-47.05,-2.52,-44.3,-7.311111111111111,-37.98777777777778
MA,São João do Soter,16083,211107,Maranhão,São Luís,Nordeste,-5.11,-43.81,-2.52,-44.3,-7.311111111111111,-37.98777777777778
MA,São João dos Patos,25452,211110,Maranhão,São Luís,Nordeste,-6.49,-43.7,-2.52,-44.3,-7.311111111111111,-37.98777777777778
MA,São José de Ribamar,269657,211120,Maranhão,São Luís,Nordeste,-2.56,-44.05,-2.52,-44.3,-7.311111111111111,-37.98777777777778
MA,São José dos Basílios,6977,211125,Maranhão,São Luís,Nordeste,-5.05,-44.58,-2.52,-44.3,-7.311111111111111,-37.98777777777778
MA,São Luís,1061374,211130,Maranhão,São Luís,Nordeste,-2.52,-44.3,-2.52,-44.3,-7.311111111111111,-37.98777777777778
MA,São Luís Gonzaga do Maranhão,17870,211140,Maranhão,São Luís,Nordeste,-4.38,-44.66,-2.52,-44.3,-7.311111111111111,-37.98777777777778
MA,São Mateus do Maranhão,38902,211150,Maranhão,São Luís,Nordeste,-4.03,-44.47,-2.52,-44.3,-7.311111111111111,-37.98777777777778
MA,São Pedro da Água Branca,14379,211153,Maranhão,São Luís,Nordeste,-5.08,-48.42,-2.52,-44.3,-7.311111111111111,-37.98777777777778
MA,São Pedro dos Crentes,5764,211157,Maranhão,São Luís,Nordeste,-6.82,-46.53,-2.52,-44.3,-7.311111111111111,-37.98777777777778
MA,São Raimundo das Mangabeiras,18593,211160,Maranhão,São Luís,Nordeste,-7.02,-45.48,-2.52,-44.3,-7.311111111111111,-37.98777777777778
MA,São Raimundo do Doca Bezerra,5646,211163,Maranhão,São Luís,Nordeste,-5.1,-45.07,-2.52,-44.3,-7.311111111111111,-37.98777777777778
MA,São Roberto,4548,211167,Maranhão,São Luís,Nordeste,-5.02,-44.99,-2.52,-44.3,-7.311111111111111,-37.98777777777778
MA,São Vicente Ferrer,19446,211170,Maranhão,São Luís,Nordeste,-2.89,-44.88,-2.52,-44.3,-7.311111111111111,-37.98777777777778
MA,Satubinha,8821,211172,Maranhão,São Luís,Nordeste,-4.03,-45.23,-2.52,-44.3,-7.311111111111111,-37.98777777777778
MA,Senador Alexandre Costa,10087,211174,Maranhão,São Luís,Nordeste,-5.25,-44.05,-2.52,-44.3,-7.311111111111111,-37.98777777777778
MA,Senador La Rocque,14688,211176,Maranhão,São Luís,Nordeste,-5.44,-47.29,-2.52,-44.3,-7.311111111111111,-37.98777777777778
MA,Serrano do Maranhão,10194,211178,Maranhão,São Luís,Nordeste,-1.85,-45.12,-2.52,-44.3,-7.311111111111111,-37.98777777777778
MA,Sítio Novo,16626,211180,Maranhão,São Luís,Nordeste,-5.87,-46.69,-2.52,-44.3,-7.311111111111111,-37.98777777777778
MA,Sucupira do Norte,10247,211190,Maranhão,São Luís,Nordeste,-6.47,-44.19,-2.52,-44.3,-7.311111111111111,-37.98777777777778
MA,Sucupira do Riachão,4966,211195,Maranhão,São Luís,Nordeste,-6.41,-43.54,-2.52,-44.3,-7.311111111111111,-37.98777777777778
MA,Tasso Fragoso,8891,211200,Maranhão,São Luís,Nordeste,-8.47,-45.74,-2.52,-44.3,-7.311111111111111,-37.98777777777778
MA,Timbiras,26501,211210,Maranhão,São Luís,Nordeste,-4.25,-43.94,-2.52,-44.3,-7.311111111111111,-37.98777777777778
MA,Timon,175044,211220,Maranhão,São Luís,Nordeste,-5.09,-42.83,-2.52,-44.3,-7.311111111111111,-37.98777777777778
MA,Trizidela do Vale,22438,211223,Maranhão,São Luís,Nordeste,-4.53,-44.62,-2.52,-44.3,-7.311111111111111,-37.98777777777778
MA,Tufilândia,5502,211227,Maranhão,São Luís,Nordeste,-3.72,-45.55,-2.52,-44.3,-7.311111111111111,-37.98777777777778
MA,Tuntum,34411,211230,Maranhão,São Luís,Nordeste,-5.25,-44.64,-2.52,-44.3,-7.311111111111111,-37.98777777777778
MA,Turiaçu,37522,211240,Maranhão,São Luís,Nordeste,-1.66,-45.37,-2.52,-44.3,-7.311111111111111,-37.98777777777778
MA,Turilândia,31875,211245,Maranhão,São Luís,Nordeste,-2.2,-45.34,-2.52,-44.3,-7.311111111111111,-37.98777777777778
MA,Tutóia,53346,211250,Maranhão,São Luís,Nordeste,-2.76,-42.27,-2.52,-44.3,-7.311111111111111,-37.98777777777778
MA,Urbano Santos,32792,211260,Maranhão,São Luís,Nordeste,-3.2,-43.4,-2.52,-44.3,-7.311111111111111,-37.98777777777778
MA,Vargem Grande,48430,211270,Maranhão,São Luís,Nordeste,-3.54,-43.91,-2.52,-44.3,-7.311111111111111,-37.98777777777778
MA,Viana,51449,211280,Maranhão,São Luís,Nordeste,-3.22,-45.0,-2.52,-44.3,-7.311111111111111,-37.98777777777778
MA,Vila Nova dos Martírios,10138,211285,Maranhão,São Luís,Nordeste,-5.18,-48.13,-2.52,-44.3,-7.311111111111111,-37.98777777777778
MA,Vitória do Mearim,30478,211290,Maranhão,São Luís,Nordeste,-3.46,-44.87,-2.52,-44.3,-7.311111111111111,-37.98777777777778
MA,Vitorino Freire,30067,211300,Maranhão,São Luís,Nordeste,-4.28,-45.25,-2.52,-44.3,-7.311111111111111,-37.98777777777778
MA,Zé Doca,40786,211400,Maranhão,São Luís,Nordeste,-3.24,-45.82,-2.52,-44.3,-7.311111111111111,-37.98777777777778
PI,Acauã,6422,220005,Piauí,Teresina,Nordeste,-8.21,-41.08,-5.08,-42.8,-7.311111111111111,-37.98777777777778
PI,Agricolândia,4962,220010,Piauí,Teresina,Nordeste,-5.79,-42.66,-5.08,-42.8,-7.311111111111111,-37.98777777777778
PI,Água Branca,17642,220020,Piauí,Teresina,Nordeste,-5.88,-42.63,-5.08,-42.8,-7.311111111111111,-37.98777777777778
PI,Alagoinha do Piauí,6819,220025,Piauí,Teresina,Nordeste,-7.0,-40.93,-5.08,-42.8,-7.311111111111111,-37.98777777777778
PI,Alegrete do Piauí,4571,220027,Piauí,Teresina,Nordeste,-7.24,-40.85,-5.08,-42.8,-7.311111111111111,-37.98777777777778
PI,Alto Longá,13185,220030,Piauí,Teresina,Nordeste,-5.25,-42.2,-5.08,-42.8,-7.311111111111111,-37.98777777777778
PI,Altos,46826,220040,Piauí,Teresina,Nordeste,-5.03,-42.46,-5.08,-42.8,-7.311111111111111,-37.98777777777778
PI,Alvorada do Gurguéia,5327,220045,Piauí,Teresina,Nordeste,-8.42,-43.77,-5.08,-42.8,-7.311111111111111,-37.98777777777778
PI,Amarante,17194,220050,Piauí,Teresina,Nordeste,-6.24,-42.85,-5.08,-42.8,-7.311111111111111,-37.98777777777778
PI,Angical do Piauí,6827,220060,Piauí,Teresina,Nordeste,-6.08,-42.73,-5.08,-42.8,-7.311111111111111,-37.98777777777778
PI,Anísio de Abreu,9401,220070,Piauí,Teresina,Nordeste,-9.18,-43.04,-5.08,-42.8,-7.311111111111111,-37.98777777777778
PI,Antônio Almeida,3155,220080,Piauí,Teresina,Nordeste,-7.21,-44.19,-5.08,-42.8,-7.311111111111111,-37.98777777777778
PI,Aroazes,5369,220090,Piauí,Teresina,Nordeste,-6.11,-41.79,-5.08,-42.8,-7.311111111111111,-37.98777777777778
PI,Aroeiras do Itaim,2709,220095,Piauí,Teresina,Nordeste,-7.27,-41.56,-5.08,-42.8,-7.311111111111111,-37.98777777777778
PI,Arraial,4519,220100,Piauí,Teresina,Nordeste,-6.65,-42.53,-5.08,-42.8,-7.311111111111111,-37.98777777777778
PI,Assunção do Piauí,7467,220105,Piauí,Teresina,Nordeste,-5.19,-41.04,-5.08,-42.8,-7.311111111111111,-37.98777777777778
PI,Avelino Lopes,10806,220110,Piauí,Teresina,Nordeste,-10.13,-43.94,-5.08,-42.8,-7.311111111111111,-37.98777777777778
PI,Baixa Grande do Ribeiro,13273,220115,Piauí,Teresina,Nordeste,-7.84,-45.21,-5.08,-42.8,-7.311111111111111,-37.98777777777778
PI,Barra D'Alcântara,3998,220117,Piauí,Teresina,Nordeste,-6.51,-42.11,-5.08,-42.8,-7.311111111111111,-37.98777777777778
PI,Barras,47909,220120,Piauí,Teresina,Nordeste,-4.24,-42.29,-5.08,-42.8,-7.311111111111111,-37.98777777777778
PI,Barreiras do Piauí,3271,220130,Piauí,Teresina,Nordeste,-9.92,-45.47,-5.08,-42.8,-7.311111111111111,-37.98777777777778
PI,Barro Duro,6641,220140,Piauí,Teresina,Nordeste,-5.81,-42.51,-5.08,-42.8,-7.311111111111111,-37.98777777777778
PI,Batalha,26300,220150,Piauí,Teresina,Nordeste,-4.02,-42.07,-5.08,-42.8,-7.311111111111111,-37.98777777777778
PI,Bela Vista do Piauí,4093,220155,Piauí,Teresina,Nordeste,-7.98,-41.86,-5.08,-42.8,-7.311111111111111,-37.98777777777778
PI,Belém do Piauí,3425,220157,Piauí,Teresina,Nordeste,-7.37,-40.97,-5.08,-42.8,-7.311111111111111,-37.98777777777778
PI,Beneditinos,9803,220160,Piauí,Teresina,Nordeste,-5.45,-42.36,-5.08,-42.8,-7.311111111111111,-37.98777777777778
PI,Bertolínia,5579,220170,Piauí,Teresina,Nordeste,-7.64,-43.95,-5.08,-42.8,-7.311111111111111,-37.98777777777778
PI,Betânia do Piauí,6222,220173,Piauí,Teresina,Nordeste,-8.14,-40.79,-5.08,-42.8,-7.311111111111111,-37.98777777777778
PI,Boa Hora,6989,220177,Piauí,Teresina,Nordeste,-4.41,-42.08,-5.08,-42.8,-7.311111111111111,-37.98777777777778
PI,Bocaina,4078,220180,Piauí,Teresina,Nordeste,-6.94,-41.32,-5.08,-42.8,-7.311111111111111,-37.98777777777778
PI,Bom Jesus,28857,220190,Piauí,Teresina,Nordeste,-9.07,-44.35,-5.08,-42.8,-7.311111111111111,-37.98777777777778
PI,Bom Princípio do Piauí,5636,220191,Piauí,Teresina,Nordeste,-3.19,-41.64,-5.08,-42.8,-7.311111111111111,-37.98777777777778
PI,Bonfim do Piauí,5918,220192,Piauí,Teresina,Nordeste,-9.16,-42.87,-5.08,-42.8,-7.311111111111111,-37.98777777777778
PI,Boqueirão do Piauí,6594,220194,Piauí,Teresina,Nordeste,-4.48,-42.07,-5.08,-42.8,-7.311111111111111,-37.98777777777778
PI,Brasileira,8438,220196,Piauí,Teresina,Nordeste,-4.13,-41.78,-5.08,-42.8,-7.311111111111111,-37.98777777777778
PI,Brejo do Piauí,3899,220198,Piauí,Teresina,Nordeste,-8.21,-42.82,-5.08,-42.8,-7.311111111111111,-37.98777777777778
PI,Buriti dos Lopes,19545,220200,Piauí,Teresina,Nordeste,-3.17,-41.86,-5.08,-42.8,-7.311111111111111,-37.98777777777778
PI,Buriti dos Montes,7440,220202,Piauí,Teresina,Nordeste,-5.31,-41.09,-5.08,-42.8,-7.311111111111111,-37.98777777777778
PI,Cabeceiras do Piauí,10001,220205,Piauí,Teresina,Nordeste,-4.47,-42.3,-5.08,-42.8,-7.311111111111111,-37.98777777777778
PI,Cajazeiras do Piauí,3113,220207,Piauí,Teresina,Nordeste,-6.76,-42.39,-5.08,-42.8,-7.311111111111111,-37.98777777777778
PI,Cajueiro da Praia,7963,220208,Piauí,Teresina,Nordeste,-2.92,-41.33,-5.08,-42.8,-7.311111111111111,-37.98777777777778
PI,Caldeirão Grande do Piauí,5503,220209,Piauí,Teresina,Nordeste,-7.33,-40.63,-5.08,-42.8,-7.311111111111111,-37.98777777777778
PI,Campinas do Piauí,4948,220210,Piauí,Teresina,Nordeste,-7.65,-41.88,-5.08,-42.8,-7.311111111111111,-37.98777777777778
PI,Campo Alegre do Fidalgo,4605,220211,Piauí,Teresina,Nordeste,-8.37,-41.83,-5.08,-42.8,-7.311111111111111,-37.98777777777778
PI,Campo Grande do Piauí,6011,220213,Piauí,Teresina,Nordeste,-7.13,-41.03,-5.08,-42.8,-7.311111111111111,-37.98777777777778
PI,Campo Largo do Piauí,7422,220217,Piauí,Teresina,Nordeste,-3.81,-42.62,-5.08,-42.8,-7.311111111111111,-37.98777777777778
PI,Campo Maior,45252,220220,Piauí,Teresina,Nordeste,-4.82,-42.16,-5.08,-42.8,-7.311111111111111,-37.98777777777778
PI,Canavieira,3409,220225,Piauí,Teresina,Nordeste,-7.68,-43.72,-5.08,-42.8,-7.311111111111111,-37.98777777777778
PI,Canto do Buriti,19355,220230,Piauí,Teresina,Nordeste,-8.1,-42.94,-5.08,-42.8,-7.311111111111111,-37.98777777777778
PI,Capitão de Campos,11108,220240,Piauí,Teresina,Nordeste,-4.45,-41.94,-5.08,-42.8,-7.311111111111111,-37.98777777777778
PI,Capitão Gervásio Oliveira,3974,220245,Piauí,Teresina,Nordeste,-8.48,-41.81,-5.08,-42.8,-7.311111111111111,-37.98777777777778
PI,Caracol,10326,220250,Piauí,Teresina,Nordeste,-9.27,-43.33,-5.08,-42.8,-7.311111111111111,-37.98777777777778
PI,Caraúbas do Piauí,5626,220253,Piauí,Teresina,Nordeste,-3.47,-41.84,-5.08,-42.8,-7.311111111111111,-37.98777777777778
PI,Caridade do Piauí,5040,220255,Piauí,Teresina,Nordeste,-7.73,-40.99,-5.08,-42.8,-7.311111111111111,-37.98777777777778
PI,Castelo do Piauí,19266,220260,Piauí,Teresina,Nordeste,-5.32,-41.55,-5.08,-42.8,-7.311111111111111,-37.98777777777778
PI,Caxingó,5497,220265,Piauí,Teresina,Nordeste,-3.41,-41.89,-5.08,-42.8,-7.311111111111111,-37.98777777777778
PI,Cocal,28121,220270,Piauí,Teresina,Nordeste,-3.47,-41.55,-5.08,-42.8,-7.311111111111111,-37.98777777777778
PI,Cocal de Telha,4927,220271,Piauí,Teresina,Nordeste,-4.55,-41.97,-5.08,-42.8,-7.311111111111111,-37.98777777777778
PI,Cocal dos Alves,6362,220272,Piauí,Teresina,Nordeste,-3.72,-41.44,-5.08,-42.8,-7.311111111111111,-37.98777777777778
PI,Coivaras,4110,220273,Piauí,Teresina,Nordeste,-5.09,-42.2,-5.08,-42.8,-7.311111111111111,-37.98777777777778
PI,Colônia do Gurguéia,6157,220275,Piauí,Teresina,Nordeste,-8.18,-43.79,-5.08,-42.8,-7.311111111111111,-37.98777777777778
PI,Colônia do Piauí,6991,220277,Piauí,Teresina,Nordeste,-7.23,-42.17,-5.08,-42.8,-7.311111111111111,-37.98777777777778
PI,Conceição do Canindé,4943,220280,Piauí,Teresina,Nordeste,-7.87,-41.59,-5.08,-42.8,-7.311111111111111,-37.98777777777778
PI,Coronel José Dias,4243,220285,Piauí,Teresina,Nordeste,-8.81,-42.51,-5.08,-42.8,-7.311111111111111,-37.98777777777778
PI,Corrente,27419,220290,Piauí,Teresina,Nordeste,-10.44,-45.16,-5.08,-42.8,-7.311111111111111,-37.98777777777778
PI,Cristalândia do Piauí,7369,220300,Piauí,Teresina,Nordeste,-10.65,-45.18,-5.08,-42.8,-7.311111111111111,-37.98777777777778
PI,Cristino Castro,10509,220310,Piauí,Teresina,Nordeste,-8.81,-44.22,-5.08,-42.8,-7.311111111111111,-37.98777777777778
PI,Curimatá,11044,220320,Piauí,Teresina,Nordeste,-10.03,-44.3,-5.08,-42.8,-7.311111111111111,-37.98777777777778
PI,Currais,4832,220323,Piauí,Teresina,Nordeste,-9.0,-44.41,-5.08,-42.8,-7.311111111111111,-37.98777777777778
PI,Curralinhos,4396,220325,Piauí,Teresina,Nordeste,-5.58,-42.77,-5.08,-42.8,-7.311111111111111,-37.98777777777778
PI,Curral Novo do Piauí,5073,220327,Piauí,Teresina,Nordeste,-7.83,-40.9,-5.08,-42.8,-7.311111111111111,-37.98777777777778
PI,Demerval Lobão,16359,220330,Piauí,Teresina,Nordeste,-5.35,-42.67,-5.08,-42.8,-7.311111111111111,-37.98777777777778
PI,Dirceu Arcoverde,7061,220335,Piauí,Teresina,Nordeste,-9.33,-42.42,-5.08,-42.8,-7.311111111111111,-37.98777777777778
PI,Dom Expedito Lopes,6315,220340,Piauí,Teresina,Nordeste,-6.95,-41.64,-5.08,-42.8,-7.311111111111111,-37.98777777777778
PI,Domingos Mourão,4071,220342,Piauí,Teresina,Nordeste,-4.25,-41.27,-5.08,-42.8,-7.311111111111111,-37.98777777777778
PI,Dom Inocêncio,9036,220345,Piauí,Teresina,Nordeste,-9.0,-41.97,-5.08,-42.8,-7.311111111111111,-37.98777777777778
PI,Elesbão Veloso,13574,220350,Piauí,Teresina,Nordeste,-6.2,-42.13,-5.08,-42.8,-7.311111111111111,-37.98777777777778
PI,Eliseu Martins,4377,220360,Piauí,Teresina,Nordeste,-8.09,-43.66,-5.08,-42.8,-7.311111111111111,-37.98777777777778
PI,Esperantina,40968,220370,Piauí,Teresina,Nordeste,-3.9,-42.23,-5.08,-42.8,-7.311111111111111,-37.98777777777778
PI,Fartura do Piauí,5284,220375,Piauí,Teresina,Nordeste,-9.48,-42.79,-5.08,-42.8,-7.311111111111111,-37.98777777777778
PI,Flores do Piauí,4415,220380,Piauí,Teresina,Nordeste,-7.79,-42.92,-5.08,-42.8,-7.311111111111111,-37.98777777777778
PI,Floresta do Piauí,2334,220385,Piauí,Teresina,Nordeste,-7.46,-41.79,-5.08,-42.8,-7.311111111111111,-37.98777777777778
PI,Floriano,62593,220390,Piauí,Teresina,Nordeste,-6.76,-43.02,-5.08,-42.8,-7.311111111111111,-37.98777777777778
PI,Francinópolis,4506,220400,Piauí,Teresina,Nordeste,-6.39,-42.26,-5.08,-42.8,-7.311111111111111,-37.98777777777778
PI,Francisco Ayres,4407,220410,Piauí,Teresina,Nordeste,-6.62,-42.69,-5.08,-42.8,-7.311111111111111,-37.98777777777778
PI,Francisco Macedo,2921,220415,Piauí,Teresina,Nordeste,-7.33,-40.78,-5.08,-42.8,-7.311111111111111,-37.98777777777778
PI,Francisco Santos,8257,220420,Piauí,Teresina,Nordeste,-6.99,-41.13,-5.08,-42.8,-7.311111111111111,-37.98777777777778
PI,Fronteiras,10293,220430,Piauí,Teresina,Nordeste,-7.08,-40.61,-5.08,-42.8,-7.311111111111111,-37.98777777777778
PI,Geminiano,5447,220435,Piauí,Teresina,Nordeste,-7.15,-41.36,-5.08,-42.8,-7.311111111111111,-37.98777777777778
PI,Gilbués,10926,220440,Piauí,Teresina,Nordeste,-9.83,-45.34,-5.08,-42.8,-7.311111111111111,-37.98777777777778
PI,Guadalupe,10305,220450,Piauí,Teresina,Nordeste,-6.78,-43.56,-5.08,-42.8,-7.311111111111111,-37.98777777777778
PI,Guaribas,4281,220455,Piauí,Teresina,Nordeste,-9.39,-43.68,-5.08,-42.8,-7.311111111111111,-37.98777777777778
PI,Hugo Napoleão,3526,220460,Piauí,Teresina,Nordeste,-5.98,-42.55,-5.08,-42.8,-7.311111111111111,-37.98777777777778
PI,Ilha Grande,9207,220465,Piauí,Teresina,Nordeste,-2.85,-41.82,-5.08,-42.8,-7.311111111111111,-37.98777777777778
PI,Inhuma,14803,220470,Piauí,Teresina,Nordeste,-6.66,-41.7,-5.08,-42.8,-7.311111111111111,-37.98777777777778
PI,Ipiranga do Piauí,9275,220480,Piauí,Teresina,Nordeste,-6.82,-41.74,-5.08,-42.8,-7.311111111111111,-37.98777777777778
PI,Isaías Coelho,7782,220490,Piauí,Teresina,Nordeste,-7.73,-41.67,-5.08,-42.8,-7.311111111111111,-37.98777777777778
PI,Itainópolis,10614,220500,Piauí,Teresina,Nordeste,-7.44,-41.47,-5.08,-42.8,-7.311111111111111,-37.98777777777778
PI,Itaueira,9939,220510,Piauí,Teresina,Nordeste,-7.6,-43.02,-5.08,-42.8,-7.311111111111111,-37.98777777777778
PI,Jacobina do Piauí,5630,220515,Piauí,Teresina,Nordeste,-7.93,-41.2,-5.08,-42.8,-7.311111111111111,-37.98777777777778
PI,Jaicós,17408,220520,Piauí,Teresina,Nordeste,-7.35,-41.13,-5.08,-42.8,-7.311111111111111,-37.98777777777778
PI,Jardim do Mulato,4178,220525,Piauí,Teresina,Nordeste,-6.09,-42.63,-5.08,-42.8,-7.311111111111111,-37.98777777777778
PI,Jatobá do Piauí,4495,220527,Piauí,Teresina,Nordeste,-4.77,-41.81,-5.08,-42.8,-7.311111111111111,-37.98777777777778
PI,Jerumenha,4435,220530,Piauí,Teresina,Nordeste,-7.08,-43.5,-5.08,-42.8,-7.311111111111111,-37.98777777777778
PI,João Costa,2971,220535,Piauí,Teresina,Nordeste,-8.51,-42.41,-5.08,-42.8,-7.311111111111111,-37.98777777777778
PI,Joaquim Pires,13893,220540,Piauí,Teresina,Nordeste,-3.5,-42.19,-5.08,-42.8,-7.311111111111111,-37.98777777777778
PI,Joca Marques,5390,220545,Piauí,Teresina,Nordeste,-3.47,-42.42,-5.08,-42.8,-7.311111111111111,-37.98777777777778
PI,José de Freitas,42575,220550,Piauí,Teresina,Nordeste,-4.75,-42.57,-5.08,-42.8,-7.311111111111111,-37.98777777777778
PI,Juazeiro do Piauí,5215,220551,Piauí,Teresina,Nordeste,-5.17,-41.7,-5.08,-42.8,-7.311111111111111,-37.98777777777778
PI,Júlio Borges,5388,220552,Piauí,Teresina,Nordeste,-10.32,-44.23,-5.08,-42.8,-7.311111111111111,-37.98777777777778
PI,Jurema,4426,220553,Piauí,Teresina,Nordeste,-9.23,-43.12,-5.08,-42.8,-7.311111111111111,-37.98777777777778
PI,Lagoinha do Piauí,2934,220554,Piauí,Teresina,Nordeste,-5.83,-42.62,-5.08,-42.8,-7.311111111111111,-37.98777777777778
PI,Lagoa Alegre,8263,220555,Piauí,Teresina,Nordeste,-4.51,-42.62,-5.08,-42.8,-7.311111111111111,-37.98777777777778
PI,Lagoa do Barro do Piauí,4997,220556,Piauí,Teresina,Nordeste,-8.47,-41.52,-5.08,-42.8,-7.311111111111111,-37.98777777777778
PI,Lagoa de São Francisco,6329,220557,Piauí,Teresina,Nordeste,-4.39,-41.6,-5.08,-42.8,-7.311111111111111,-37.98777777777778
PI,Lagoa do Piauí,4805,220558,Piauí,Teresina,Nordeste,-5.41,-42.64,-5.08,-42.8,-7.311111111111111,-37.98777777777778
PI,Lagoa do Sítio,4529,220559,Piauí,Teresina,Nordeste,-6.51,-41.58,-5.08,-42.8,-7.311111111111111,-37.98777777777778
PI,Landri Sales,5315,220560,Piauí,Teresina,Nordeste,-7.26,-43.93,-5.08,-42.8,-7.311111111111111,-37.98777777777778
PI,Luís Correia,30701,220570,Piauí,Teresina,Nordeste,-2.87,-41.66,-5.08,-42.8,-7.311111111111111,-37.98777777777778
PI,Luzilândia,25382,220580,Piauí,Teresina,Nordeste,-3.45,-42.36,-5.08,-42.8,-7.311111111111111,-37.98777777777778
PI,Madeiro,8046,220585,Piauí,Teresina,Nordeste,-3.48,-42.5,-5.08,-42.8,-7.311111111111111,-37.98777777777778
PI,Manoel Emídio,5212,220590,Piauí,Teresina,Nordeste,-8.01,-43.87,-5.08,-42.8,-7.311111111111111,-37.98777777777778
PI,Marcolândia,8541,220595,Piauí,Teresina,Nordeste,-7.44,-40.66,-5.08,-42.8,-7.311111111111111,-37.98777777777778
PI,Marcos Parente,4729,220600,Piauí,Teresina,Nordeste,-7.12,-43.89,-5.08,-42.8,-7.311111111111111,-37.98777777777778
PI,Massapê do Piauí,5233,220605,Piauí,Teresina,Nordeste,-7.46,-41.12,-5.08,-42.8,-7.311111111111111,-37.98777777777778
PI,Matias Olímpio,10712,220610,Piauí,Teresina,Nordeste,-3.71,-42.55,-5.08,-42.8,-7.311111111111111,-37.98777777777778
PI,Miguel Alves,32151,220620,Piauí,Teresina,Nordeste,-4.16,-42.89,-5.08,-42.8,-7.311111111111111,-37.98777777777778
PI,Miguel Leão,1318,220630,Piauí,Teresina,Nordeste,-5.68,-42.73,-5.08,-42.8,-7.311111111111111,-37.98777777777778
PI,Milton Brandão,6543,220635,Piauí,Teresina,Nordeste,-4.68,-41.42,-5.08,-42.8,-7.311111111111111,-37.98777777777778
PI,Monsenhor Gil,10260,220640,Piauí,Teresina,Nordeste,-5.56,-42.6,-5.08,-42.8,-7.311111111111111,-37.98777777777778
PI,Monsenhor Hipólito,7550,220650,Piauí,Teresina,Nordeste,-6.99,-41.02,-5.08,-42.8,-7.311111111111111,-37.98777777777778
PI,Monte Alegre do Piauí,10683,220660,Piauí,Teresina,Nordeste,-9.75,-45.3,-5.08,-42.8,-7.311111111111111,-37.98777777777778
PI,Morro Cabeça no Tempo,4361,220665,Piauí,Teresina,Nordeste,-9.72,-43.9,-5.08,-42.8,-7.311111111111111,-37.98777777777778
PI,Morro do Chapéu do Piauí,6422,220667,Piauí,Teresina,Nordeste,-3.74,-42.31,-5.08,-42.8,-7.311111111111111,-37.98777777777778
PI,Murici dos Portelas,9841,220669,Piauí,Teresina,Nordeste,-3.31,-42.09,-5.08,-42.8,-7.311111111111111,-37.98777777777778
PI,Nazaré do Piauí,6660,220670,Piauí,Teresina,Nordeste,-6.97,-42.67,-5.08,-42.8,-7.311111111111111,-37.98777777777778
PI,Nazária,10278,220672,Piauí,Teresina,Nordeste,-5.35,-42.81,-5.08,-42.8,-7.311111111111111,-37.98777777777778
PI,Nossa Senhora de Nazaré,5195,220675,Piauí,Teresina,Nordeste,-4.63,-42.17,-5.08,-42.8,-7.311111111111111,-37.98777777777778
PI,Nossa Senhora dos Remédios,8523,220680,Piauí,Teresina,Nordeste,-3.97,-42.62,-5.08,-42.8,-7.311111111111111,-37.98777777777778
PI,Novo Oriente do Piauí,6081,220690,Piauí,Teresina,Nordeste,-6.44,-41.93,-5.08,-42.8,-7.311111111111111,-37.98777777777778
PI,Novo Santo Antônio,2820,220695,Piauí,Teresina,Nordeste,-5.28,-41.93,-5.08,-42.8,-7.311111111111111,-37.98777777777778
PI,Oeiras,38192,220700,Piauí,Teresina,Nordeste,-7.02,-42.13,-5.08,-42.8,-7.311111111111111,-37.98777777777778
PI,Olho D'Água do Piauí,2646,220710,Piauí,Teresina,Nordeste,-5.84,-42.57,-5.08,-42.8,-7.311111111111111,-37.98777777777778
PI,Padre Marcos,6379,220720,Piauí,Teresina,Nordeste,-7.35,-40.9,-5.08,-42.8,-7.311111111111111,-37.98777777777778
PI,Paes Landim,4100,220730,Piauí,Teresina,Nordeste,-7.77,-42.25,-5.08,-42.8,-7.311111111111111,-37.98777777777778
PI,Pajeú do Piauí,3001,220735,Piauí,Teresina,Nordeste,-7.85,-42.82,-5.08,-42.8,-7.311111111111111,-37.98777777777778
PI,Palmeira do Piauí,4954,220740,Piauí,Teresina,Nordeste,-8.72,-44.23,-5.08,-42.8,-7.311111111111111,-37.98777777777778
PI,Palmeirais,13156,220750,Piauí,Teresina,Nordeste,-5.97,-43.06,-5.08,-42.8,-7.311111111111111,-37.98777777777778
PI,Paquetá,3818,220755,Piauí,Teresina,Nordeste,-7.1,-41.7,-5.08,-42.8,-7.311111111111111,-37.98777777777778
PI,Parnaguá,9429,220760,Piauí,Teresina,Nordeste,-10.22,-44.63,-5.08,-42.8,-7.311111111111111,-37.98777777777778
PI,Parnaíba,163087,220770,Piauí,Teresina,Nordeste,-2.9,-41.77,-5.08,-42.8,-7.311111111111111,-37.98777777777778
PI,Passagem Franca do Piauí,4144,220775,Piauí,Teresina,Nordeste,-5.85,-42.43,-5.08,-42.8,-7.311111111111111,-37.98777777777778
PI,Patos do Piauí,5425,220777,Piauí,Teresina,Nordeste,-7.66,-41.24,-5.08,-42.8,-7.311111111111111,-37.98777777777778
PI,Pau D'Arco do Piauí,3879,220779,Piauí,Teresina,Nordeste,-5.26,-42.39,-5.08,-42.8,-7.311111111111111,-37.98777777777778
PI,Paulistana,21080,220780,Piauí,Teresina,Nordeste,-8.14,-41.15,-5.08,-42.8,-7.311111111111111,-37.98777777777778
PI,Pavussu,3620,220785,Piauí,Teresina,Nordeste,-7.96,-43.22,-5.08,-42.8,-7.311111111111111,-37.98777777777778
PI,Pedro II,37945,220790,Piauí,Teresina,Nordeste,-4.42,-41.45,-5.08,-42.8,-7.311111111111111,-37.98777777777778
PI,Pedro Laurentino,2458,220793,Piauí,Teresina,Nordeste,-8.06,-42.28,-5.08,-42.8,-7.311111111111111,-37.98777777777778
PI,Nova Santa Rita,4059,220795,Piauí,Teresina,Nordeste,-8.08,-42.05,-5.08,-42.8,-7.311111111111111,-37.98777777777778
PI,Picos,82028,220800,Piauí,Teresina,Nordeste,-7.07,-41.46,-5.08,-42.8,-7.311111111111111,-37.98777777777778
PI,Pimenteiras,11172,220810,Piauí,Teresina,Nordeste,-6.24,-41.41,-5.08,-42.8,-7.311111111111111,-37.98777777777778
PI,Pio IX,17586,220820,Piauí,Teresina,Nordeste,-6.83,-40.57,-5.08,-42.8,-7.311111111111111,-37.98777777777778
PI,Piracuruca,28906,220830,Piauí,Teresina,Nordeste,-3.92,-41.7,-5.08,-42.8,-7.311111111111111,-37.98777777777778
PI,Piripiri,65762,220840,Piauí,Teresina,Nordeste,-4.27,-41.77,-5.08,-42.8,-7.311111111111111,-37.98777777777778
PI,Porto,12122,220850,Piauí,Teresina,Nordeste,-3.89,-42.7,-5.08,-42.8,-7.311111111111111,-37.98777777777778
PI,Porto Alegre do Piauí,2342,220855,Piauí,Teresina,Nordeste,-6.96,-44.18,-5.08,-42.8,-7.311111111111111,-37.98777777777778
PI,Prata do Piauí,3042,220860,Piauí,Teresina,Nordeste,-5.66,-42.2,-5.08,-42.8,-7.311111111111111,-37.98777777777778
PI,Queimada Nova,8734,220865,Piauí,Teresina,Nordeste,-8.57,-41.41,-5.08,-42.8,-7.311111111111111,-37.98777777777778
PI,Redenção do Gurguéia,8393,220870,Piauí,Teresina,Nordeste,-9.48,-44.58,-5.08,-42.8,-7.311111111111111,-37.98777777777778
PI,Regeneração,17108,220880,Piauí,Teresina,Nordeste,-6.23,-42.68,-5.08,-42.8,-7.311111111111111,-37.98777777777778
PI,Riacho Frio,4112,220885,Piauí,Teresina,Nordeste,-10.12,-44.95,-5.08,-42.8,-7.311111111111111,-37.98777777777778
PI,Ribeira do Piauí,4043,220887,Piauí,Teresina,Nordeste,-7.69,-42.71,-5.08,-42.8,-7.311111111111111,-37.98777777777778
PI,Ribeiro Gonçalves,6164,220890,Piauí,Teresina,Nordeste,-7.55,-45.24,-5.08,-42.8,-7.311111111111111,-37.98777777777778
PI,Rio Grande do Piauí,5789,220900,Piauí,Teresina,Nordeste,-7.77,-43.14,-5.08,-42.8,-7.311111111111111,-37.98777777777778
PI,Santa Cruz do Piauí,5834,220910,Piauí,Teresina,Nordeste,-7.18,-41.76,-5.08,-42.8,-7.311111111111111,-37.98777777777778
PI,Santa Cruz dos Milagres,3432,220915,Piauí,Teresina,Nordeste,-5.8,-41.95,-5.08,-42.8,-7.311111111111111,-37.98777777777778
PI,Santa Filomena,6084,220920,Piauí,Teresina,Nordeste,-9.11,-45.92,-5.08,-42.8,-7.311111111111111,-37.98777777777778
PI,Santa Luz,5339,220930,Piauí,Teresina,Nordeste,-8.95,-44.12,-5.08,-42.8,-7.311111111111111,-37.98777777777778
PI,Santana do Piauí,4124,220935,Piauí,Teresina,Nordeste,-6.94,-41.51,-5.08,-42.8,-7.311111111111111,-37.98777777777778
PI,Santa Rosa do Piauí,4645,220937,Piauí,Teresina,Nordeste,-6.79,-42.28,-5.08,-42.8,-7.311111111111111,-37.98777777777778
PI,Santo Antônio de Lisboa,5842,220940,Piauí,Teresina,Nordeste,-6.98,-41.23,-5.08,-42.8,-7.311111111111111,-37.98777777777778
PI,Santo Antônio dos Milagres,2141,220945,Piauí,Teresina,Nordeste,-6.04,-42.7,-5.08,-42.8,-7.311111111111111,-37.98777777777778
PI,Santo Inácio do Piauí,3645,220950,Piauí,Teresina,Nordeste,-7.42,-41.91,-5.08,-42.8,-7.311111111111111,-37.98777777777778
PI,São Braz do Piauí,4359,220955,Piauí,Teresina,Nordeste,-8.96,-43.0,-5.08,-42.8,-7.311111111111111,-37.98777777777778
PI,São Félix do Piauí,2842,220960,Piauí,Teresina,Nordeste,-5.93,-42.11,-5.08,-42.8,-7.311111111111111,-37.98777777777778
PI,São Francisco de Assis do Piauí,5561,220965,Piauí,Teresina,Nordeste,-8.23,-41.68,-5.08,-42.8,-7.311111111111111,-37.98777777777778
PI,São Francisco do Piauí,5386,220970,Piauí,Teresina,Nordeste,-7.25,-42.54,-5.08,-42.8,-7.311111111111111,-37.98777777777778
PI,São Gonçalo do Gurguéia,2960,220975,Piauí,Teresina,Nordeste,-10.02,-45.3,-5.08,-42.8,-7.311111111111111,-37.98777777777778
